,id,name,opening_hours,place_id,plus_code,price_level,rating,reference,scope,user_ratings_total,vicinity,Latitude,Longitude,location_coordinates,rating_bucket
0,231f6b3e930705781173dee815951403f29bb0ba,scorcher's casual eatery & draft house,{'open_now': True},ChIJ41J07AKdMIgR7qeRTjC3oGI,"{'compound_code': 'FR7G+5Q Lorain, Sheffield Township, OH, United States', 'global_code': '86HVFR7G+5Q'}",2.0,4.0,ChIJ41J07AKdMIgR7qeRTjC3oGI,GOOGLE,242.0,"900 Broadway Avenue, Lorain",41.462950799999994,-82.1731035,POINT (-82.1731035 41.46295079999999),4
1,cdd9473756d09af73843faccb3b2e7415fdd919d,american slovak club,{'open_now': True},ChIJdS9o4FGcMIgR8TvM0-RZSX8,"{'compound_code': 'CRVP+J4 Lorain, Sheffield Township, OH, United States', 'global_code': '86HVCRVP+J4'}",2.0,4.5,ChIJdS9o4FGcMIgR8TvM0-RZSX8,GOOGLE,277.0,"2915 Broadway Avenue, Lorain",41.44411710000001,-82.1646481,POINT (-82.16464809999999 41.44411710000001),4
2,2f95c497755af6f55a8d16ec77f2e0640e20be44,yala's pizzeria,{'open_now': True},ChIJN9j6ZLmdMIgRuIjJAzbrc5M,"{'compound_code': 'CRR7+2Q Lorain, Sheffield Township, OH, United States', 'global_code': '86HVCRR7+2Q'}",2.0,4.6,ChIJN9j6ZLmdMIgRuIjJAzbrc5M,GOOGLE,191.0,"3352 Oberlin Avenue, Lorain",41.440093299999994,-82.18560060000001,POINT (-82.18560060000001 41.44009329999999),5
3,572983b6565dc04ef54c07c2c1e248c923d612f7,bascule brewery and public house,{'open_now': True},ChIJVVVVVRydMIgRG5VSst18Snk,"{'compound_code': 'FR8V+85 Lorain, Sheffield Township, OH, United States', 'global_code': '86HVFR8V+85'}",2.0,4.7,ChIJVVVVVRydMIgRG5VSst18Snk,GOOGLE,83.0,"1397 Colorado Avenue, Lorain",41.46578379999999,-82.1571014,POINT (-82.1571014 41.46578379999999),5
4,37f64b9d486e4344f2e9512515dbf8afc8d76aa5,subway restaurants,{'open_now': True},ChIJGdKqMNpuK4cRJYpiriPY4Ck,"{'compound_code': 'JVRC+2F Phoenix, Arizona, United States', 'global_code': '8559JVRC+2F'}",1.0,3.9,ChIJGdKqMNpuK4cRJYpiriPY4Ck,GOOGLE,67.0,"3210 W Bell Rd Suite 100 Upton Plaza Shopping Center, Phoenix",33.64012189999999,-112.1287932,POINT (-112.1287932 33.64012189999999),4
5,306ac7321047264f5f5a5601415fe8d25de76577,lamar's donuts and coffee,{'open_now': False},ChIJkSZgkeVuK4cRVKRTf2Db2OI,"{'compound_code': 'JVRQ+5G Phoenix, Arizona, United States', 'global_code': '8559JVRQ+5G'}",1.0,4.7,ChIJkSZgkeVuK4cRVKRTf2Db2OI,GOOGLE,557.0,"2340 West Bell Road, Phoenix",33.640446999999995,-112.11116399999999,POINT (-112.111164 33.64044699999999),5
6,b223c07a573b8f76d88b88fcf0ea94c73cb9a3a7,greek pita,{'open_now': True},ChIJVdwe4KFuK4cRDtCF7wXvMJ0,"{'compound_code': 'JV5J+R7 Phoenix, Arizona, United States', 'global_code': '8559JV5J+R7'}",2.0,4.5,ChIJVdwe4KFuK4cRDtCF7wXvMJ0,GOOGLE,224.0,"2737 West Thunderbird Road #108, Phoenix",33.60959929999999,-112.1192909,POINT (-112.1192909 33.60959929999999),4
7,7d43432e790adeedb4c256cd3266b8b1e6a4b83f,dressler's,{'open_now': True},ChIJJ8sHeIyfVogRB7HW87wgjjk,"{'compound_code': '6567+XM Charlotte, 1, Charlotte, NC, United States', 'global_code': '867X6567+XM'}",3.0,4.6,ChIJJ8sHeIyfVogRB7HW87wgjjk,GOOGLE,334.0,"1100 Metropolitan Avenue #125, Charlotte",35.212475399999995,-80.8357923,POINT (-80.83579229999999 35.2124754),5
8,37b2520c6b91c456ca95390c5bac2084e40c83be,zoës kitchen,{'open_now': True},ChIJQ08rfIufVogRKtOx9OwB65M,"{'compound_code': '6577+9X Charlotte, 1, Charlotte, NC, United States', 'global_code': '867X6577+9X'}",2.0,4.2,ChIJQ08rfIufVogRKtOx9OwB65M,GOOGLE,292.0,"1055 Metropolitan Avenue Ste 110, Charlotte",35.2134002,-80.83509939999998,POINT (-80.83509939999998 35.2134002),4
9,0135e80634de66fca91f1fc569afe9f5c98413f4,dale earnhardt jr.'s whisky river at the epicentre,{'open_now': True},ChIJ7cS_6yWgVogRzeX2AjCj34g,"{'compound_code': '65G5+67 Charlotte, 1, Charlotte, NC, United States', 'global_code': '867X65G5+67'}",2.0,3.4,ChIJ7cS_6yWgVogRzeX2AjCj34g,GOOGLE,556.0,"2413, 210 East Trade Street A-208, Charlotte",35.2255601,-80.8418131,POINT (-80.8418131 35.2255601),3
10,3ae8b9008713d8ee92a44c94d95564fedc65b5dc,strike city,{'open_now': True},ChIJ7cS_6yWgVogRdftyxiP7Vyc,"{'compound_code': '65G5+36 Charlotte, 1, Charlotte, NC, United States', 'global_code': '867X65G5+36'}",2.0,3.8,ChIJ7cS_6yWgVogRdftyxiP7Vyc,GOOGLE,293.0,"210 East Trade Street D-164, Charlotte",35.2252055,-80.84190579999998,POINT (-80.84190579999998 35.2252055),4
11,813ffca1ee6d1769fe41399c9167a422bef2445c,blackfinn ameripub - charlotte (uptown),{'open_now': True},ChIJ7cS_6yWgVogRXRRNnThjBAY,"{'compound_code': '65G5+34 Charlotte, 1, Charlotte, NC, United States', 'global_code': '867X65G5+34'}",2.0,4.1,ChIJ7cS_6yWgVogRXRRNnThjBAY,GOOGLE,433.0,"210 East Trade Street #120-B, Charlotte",35.22519279999999,-80.8422334,POINT (-80.8422334 35.22519279999999),4
12,8e943c95c36fe471156054507d0953d1f8b2456d,halcyon flavors from the earth,{'open_now': True},ChIJ6QA5TymgVogRtwlZGipcwKc,"{'compound_code': '65F2+QP Charlotte, 1, Charlotte, NC, United States', 'global_code': '867X65F2+QP'}",2.0,4.3,ChIJ6QA5TymgVogRtwlZGipcwKc,GOOGLE,160.0,"500 South Tryon Street, Charlotte",35.2244149,-80.8482444,POINT (-80.8482444 35.2244149),4
13,8051d990008978f4a62f7a53a945746977e15258,vbgb beer hall and garden/restaurant,{'open_now': True},ChIJIVXP2DegVogR_bp3H2r2P5k,"{'compound_code': '65R3+7X Charlotte, 1, Charlotte, NC, United States', 'global_code': '867X65R3+7X'}",2.0,4.5,ChIJIVXP2DegVogR_bp3H2r2P5k,GOOGLE,1125.0,"920 Hamilton Street, Charlotte",35.240671299999995,-80.8450975,POINT (-80.84509749999999 35.2406713),4
14,84b5af8341ea32e9a655eabc8948929ec0793962,5church charlotte,{'open_now': True},ChIJaU3FayWgVogRSbDBMGyJSPo,"{'compound_code': '65H4+CQ Charlotte, 1, Charlotte, NC, United States', 'global_code': '867X65H4+CQ'}",2.0,4.3,ChIJaU3FayWgVogRSbDBMGyJSPo,GOOGLE,632.0,"127 North Tryon Street #8, Charlotte",35.2285482,-80.84305379999998,POINT (-80.84305379999998 35.2285482),4
15,654777f4b92f5a2fa4654774f1a4f3ef62983e89,subway restaurants,{'open_now': False},ChIJF3cGLSSgVogRR7MZV8SkKJw,"{'compound_code': '65F5+QH Charlotte, 1, Charlotte, NC, United States', 'global_code': '867X65F5+QH'}",1.0,3.7,ChIJF3cGLSSgVogRR7MZV8SkKJw,GOOGLE,16.0,"310 E Trade St, Brevard St Pavilion Food Ct, Charlotte Transit Center, Charlotte",35.224497899999996,-80.84104,POINT (-80.84104000000001 35.2244979),4
16,fa5f8d176d4ba627a1024b3553beb6f915626974,silver sevens hotel & casino,{'open_now': True},ChIJqwVx6VHEyIARfYnBVXjCGYU,"{'compound_code': '4R7W+GW Las Vegas, Nevada, United States', 'global_code': '85864R7W+GW'}",2.0,3.7,ChIJqwVx6VHEyIARfYnBVXjCGYU,GOOGLE,5299.0,"4100 Paradise Road, Las Vegas",36.113761700000005,-115.1526489,POINT (-115.1526489 36.1137617),4
18,3f2effcfe85aa8231b80561b2b0537b29856107c,royal india bistro,{'open_now': True},ChIJHV0izyDEyIARWgrjPrzFoug,"{'compound_code': '4R87+R4 Las Vegas, Nevada, United States', 'global_code': '85864R87+R4'}",3.0,3.2,ChIJHV0izyDEyIARWgrjPrzFoug,GOOGLE,171.0,"3700 West Flamingo Road, Las Vegas",36.11702160000001,-115.1872076,POINT (-115.1872076 36.11702160000001),3
19,86537dbc2c5070ccde6de3cdbb2cda60317376fd,hash house a go go at the linq,{'open_now': True},ChIJwWKyCjzEyIARSGs0dqKp_Ts,"{'compound_code': '4R9H+6H Las Vegas, Nevada, United States', 'global_code': '85864R9H+6H'}",2.0,4.4,ChIJwWKyCjzEyIARSGs0dqKp_Ts,GOOGLE,4463.0,"3535 South Las Vegas Boulevard, Las Vegas",36.118080400000004,-115.1710155,POINT (-115.1710155 36.1180804),4
20,de6a38b2b7b64462e679e85ef1542f5f95312b22,eiffel tower restaurant,{'open_now': True},ChIJvUdRyzDEyIARI1pF9okesXg,"{'compound_code': '4R6H+X4 Las Vegas, Nevada, United States', 'global_code': '85864R6H+X4'}",4.0,4.5,ChIJvUdRyzDEyIARI1pF9okesXg,GOOGLE,1492.0,"3655 South Las Vegas Boulevard, Las Vegas",36.1124662,-115.17219159999999,POINT (-115.1721916 36.1124662),4
21,841dbddaf2271936755ac369158a65c4c669ddf1,mr. lucky's 24/7,{'open_now': True},ChIJOV4Pe03EyIARKqtoP6l1E1Y,"{'compound_code': '4R5W+J5 Las Vegas, Nevada, United States', 'global_code': '85864R5W+J5'}",2.0,4.0,ChIJOV4Pe03EyIARKqtoP6l1E1Y,GOOGLE,413.0,"4455 Paradise Road, Las Vegas",36.1090823,-115.1545962,POINT (-115.1545962 36.1090823),4
22,1f9dd9f4147d9cb31aac5a30ecff3bc06ad5d781,fogo de chao brazilian steakhouse,{'open_now': True},ChIJZReBqU_EyIARNiPFO6dAQoc,"{'compound_code': '4R8V+2C Las Vegas, Nevada, United States', 'global_code': '85864R8V+2C'}",3.0,4.5,ChIJZReBqU_EyIARNiPFO6dAQoc,GOOGLE,2046.0,"360 East Flamingo Road, Las Vegas",36.115019700000005,-115.1564462,POINT (-115.1564462 36.1150197),4
23,23737c474eb7c88e3323cce71cfa6b2b2b0d7898,margaritaville restaurant las vegas,{'open_now': True},ChIJVdePyjvEyIARuTkLCavLeMs,"{'compound_code': '4R8G+RW Las Vegas, Nevada, United States', 'global_code': '85864R8G+RW'}",2.0,4.1,ChIJVdePyjvEyIARuTkLCavLeMs,GOOGLE,2425.0,"3555 South Las Vegas Boulevard, Las Vegas",36.117037599999996,-115.1726662,POINT (-115.1726662 36.1170376),4
24,f13d13e6ef351656079a62ce2a5b82fbbf7ec3a0,nobu restaurant,{'open_now': False},ChIJAXK2ZzvEyIAR2ZN4cdxmSjQ,"{'compound_code': '4R8F+PV Las Vegas, Nevada, United States', 'global_code': '85864R8F+PV'}",4.0,4.3,ChIJAXK2ZzvEyIAR2ZN4cdxmSjQ,GOOGLE,459.0,"3570 South Las Vegas Boulevard, Las Vegas",36.116850799999995,-115.1753095,POINT (-115.1753095 36.11685079999999),4
25,842ffa1f035b22536e2dca295c12922520ece375,hofbrauhaus las vegas,{'open_now': True},ChIJcUf7yVLEyIARfMKFu_oijC0,"{'compound_code': '4R5X+3F Las Vegas, Nevada, United States', 'global_code': '85864R5X+3F'}",2.0,4.4,ChIJcUf7yVLEyIARfMKFu_oijC0,GOOGLE,1873.0,"4510 Paradise Road, Las Vegas",36.10766600000001,-115.151348,POINT (-115.151348 36.10766600000001),4
26,fb03806f706d66fd9dec4ff3b53251ca9d0bf276,noodles and company,{'open_now': True},ChIJCa81jTdTBogRmcaEF_I9ta0,"{'compound_code': '3JF6+X5 Madison, Wisconsin, United States', 'global_code': '86MG3JF6+X5'}",1.0,3.8,ChIJCa81jTdTBogRmcaEF_I9ta0,GOOGLE,366.0,"232 State Street At, West Johnson Street, Madison",43.0749386,-89.3895435,POINT (-89.3895435 43.0749386),4
28,54b6f3ca61dd67855c20448b082e53a8f1befdf4,the coopers tavern,{'open_now': True},ChIJJxyDjjhTBogRoaXIlEj_rL0,"{'compound_code': '3JG7+2G Madison, Wisconsin, United States', 'global_code': '86MG3JG7+2G'}",2.0,4.4,ChIJJxyDjjhTBogRoaXIlEj_rL0,GOOGLE,964.0,"20 West Mifflin Street, Madison",43.0751065,-89.38617020000001,POINT (-89.38617020000001 43.0751065),4
29,4d72e2e85ce5a5ebee24168912b09459fc6614bb,essen haus restaurant and bar,{'open_now': True},ChIJDWlcMmtTBogRYnPoIJBC5EU,"{'compound_code': '3JGF+F9 Madison, Wisconsin, United States', 'global_code': '86MG3JGF+F9'}",2.0,4.3,ChIJDWlcMmtTBogRYnPoIJBC5EU,GOOGLE,659.0,"514 East Wilson Street, Madison",43.076215999999995,-89.3765367,POINT (-89.3765367 43.076216),4
30,bea290c7f70e2b453ce041813bdfea449dff2412,nitty gritty-madison,{'open_now': True},ChIJS-sgezRTBogRMMQhlZ9JNes,"{'compound_code': '3JC3+PP Madison, Wisconsin, United States', 'global_code': '86MG3JC3+PP'}",1.0,4.1,ChIJS-sgezRTBogRMMQhlZ9JNes,GOOGLE,1029.0,"223 North Frances Street, Madison",43.071836,-89.3956336,POINT (-89.3956336 43.071836),4
31,054971e3aaad2b85e4773dda7ce79e1a5ba7d96f,nam's noodle & karaoke bar,{'open_now': True},ChIJgYdaZ8WsB4gRRTgoP_sYlaE,"{'compound_code': '3H9R+5J Madison, Wisconsin, United States', 'global_code': '86MG3H9R+5J'}",2.0,4.2,ChIJgYdaZ8WsB4gRRTgoP_sYlaE,GOOGLE,187.0,"1336 Regent Street, Madison",43.0678807,-89.40845959999999,POINT (-89.40845959999999 43.0678807),4
32,aaad28f0df1032ba457ab996cf5fdb5790baf179,brass ring bar & restaurant,{'open_now': True},ChIJAyWDx2tTBogRtlWv_fF2OpU,"{'compound_code': '3JHF+WF Madison, Wisconsin, United States', 'global_code': '86MG3JHF+WF'}",2.0,4.3,ChIJAyWDx2tTBogRtlWv_fF2OpU,GOOGLE,364.0,"701 East Washington Avenue, Madison",43.0798171,-89.37629620000001,POINT (-89.37629620000001 43.0798171),4
33,09508b62ace0d031d3ca578f0a8fc4ebea41adfa,paisan's restaurant,{'open_now': True},ChIJ5WhuHzxTBogRMFctATM2bew,"{'compound_code': '3JC8+8M Madison, Wisconsin, United States', 'global_code': '86MG3JC8+8M'}",2.0,4.2,ChIJ5WhuHzxTBogRMFctATM2bew,GOOGLE,656.0,"131 West Wilson Street, Madison",43.07082430000001,-89.38331219999998,POINT (-89.38331219999998 43.07082430000001),4
34,fb14d1a98f543285fe4af0d9497c5c57c199c70a,the church brew works,{'open_now': True},ChIJKT2mUrXzNIgRP_zITVG6-1s,"{'compound_code': 'F26P+Q9 Pittsburgh, Pennsylvania, United States', 'global_code': '87G2F26P+Q9'}",2.0,4.3,ChIJKT2mUrXzNIgRP_zITVG6-1s,GOOGLE,2750.0,"3525 Liberty Avenue, Pittsburgh",40.4619875,-79.9640824,POINT (-79.9640824 40.4619875),4
35,ac4bac7568504ed17fd3e35738b65c2f3c3d0d7d,hambone's,{'open_now': True},ChIJbwUZkE3yNIgRXGbHNamVy5Q,"{'compound_code': 'F2CQ+5P Pittsburgh, Pennsylvania, United States', 'global_code': '87G2F2CQ+5P'}",2.0,4.2,ChIJbwUZkE3yNIgRXGbHNamVy5Q,GOOGLE,378.0,"4207 Butler Street, Pittsburgh",40.47042929999999,-79.96063439999998,POINT (-79.96063439999998 40.47042929999999),4
36,282c50683ec50e73a3511661223c6e74f3daf5cf,tessaro's american bar & hardwood grill,{'open_now': True},ChIJ1a5WTUbyNIgRjZqErFhIgMQ,"{'compound_code': 'F27X+3P Pittsburgh, Pennsylvania, United States', 'global_code': '87G2F27X+3P'}",2.0,4.5,ChIJ1a5WTUbyNIgRjZqErFhIgMQ,GOOGLE,802.0,"4601 Liberty Avenue, Pittsburgh",40.4627049,-79.9507288,POINT (-79.95072879999999 40.4627049),4
37,b625361c4bf376df2287f82c0beeca6563940501,pleasure bar,{'open_now': True},ChIJU1c6EUfyNIgRg8gKJwQNl4c,"{'compound_code': 'F362+MG Pittsburgh, Pennsylvania, United States', 'global_code': '87G2F362+MG'}",2.0,4.2,ChIJU1c6EUfyNIgRg8gKJwQNl4c,GOOGLE,346.0,"4729 Liberty Avenue, Pittsburgh",40.461721000000004,-79.9486953,POINT (-79.9486953 40.461721),4
38,10f63172a4e75f5150b627099bf37672eed64041,coca café,{'open_now': False},ChIJawloTbPzNIgRKDeBjVR_2bA,"{'compound_code': 'F28P+V8 Pittsburgh, Pennsylvania, United States', 'global_code': '87G2F28P+V8'}",2.0,3.7,ChIJawloTbPzNIgRKDeBjVR_2bA,GOOGLE,295.0,"3811 Butler Street, Pittsburgh",40.46721700000001,-79.96417319999998,POINT (-79.96417319999998 40.46721700000001),4
39,50b4bbb80c3c4b23dd52a5cc7d7ddfa635aec0e9,subway restaurants,{'open_now': True},ChIJu4UGEE3yNIgRkPhm-FnFDxk,"{'compound_code': 'F29Q+P6 Pittsburgh, Pennsylvania, United States', 'global_code': '87G2F29Q+P6'}",1.0,3.4,ChIJu4UGEE3yNIgRkPhm-FnFDxk,GOOGLE,18.0,"4017 Butler Street, Pittsburgh",40.4693314,-79.9619155,POINT (-79.9619155 40.4693314),3
40,269f1f8617b3a1f4ffef92048eee2de709394501,subway restaurants,{'open_now': True},ChIJCfyoZ6nzNIgRL5QlxkTYtbE,"{'compound_code': 'F2HH+9X Millvale, Pennsylvania, United States', 'global_code': '87G2F2HH+9X'}",1.0,4.1,ChIJCfyoZ6nzNIgRL5QlxkTYtbE,GOOGLE,67.0,"124 Grant Avenue, Millvale",40.4784908,-79.97010399999998,POINT (-79.97010399999998 40.4784908),4
41,572671dbc926d9fd6db977cfb35cb6e85a1461e5,salem halal market & grill,{'open_now': True},ChIJNdRSlcjzNIgRKztXRZ8R3os,"{'compound_code': 'F25G+CG Pittsburgh, Pennsylvania, United States', 'global_code': '87G2F25G+CG'}",1.0,4.6,ChIJNdRSlcjzNIgRKztXRZ8R3os,GOOGLE,1527.0,"2923 Penn Avenue, Pittsburgh",40.458503799999995,-79.9737268,POINT (-79.97372679999999 40.4585038),5
42,cfd84b05b56399c8256d10fa95932ffe96466f0e,subway restaurants,{'open_now': True},ChIJUU0xTEfyNIgRm45QJ4PgP2o,"{'compound_code': 'F362+6X Pittsburgh, Pennsylvania, United States', 'global_code': '87G2F362+6X'}",1.0,3.9,ChIJUU0xTEfyNIgRm45QJ4PgP2o,GOOGLE,14.0,"4778 Liberty Avenue, Pittsburgh",40.460607,-79.94757800000001,POINT (-79.94757800000001 40.460607),4
43,d37c45ee67d9ece2f07ec8e508e12acb77735b26,subway restaurants,{'open_now': True},ChIJsYhp5T7XDIgR9mRJA0y7yxo,"{'compound_code': '4Q5C+73 Champaign, Champaign City Township, IL, United States', 'global_code': '86GH4Q5C+73'}",1.0,3.7,ChIJsYhp5T7XDIgR9mRJA0y7yxo,GOOGLE,22.0,"610 East Daniel Street, Champaign",40.1081592,-88.2297772,POINT (-88.2297772 40.1081592),4
44,21579f6ad5691ddbea755aa0d7f3cc4c6d94ae90,el toro ii,{'open_now': True},ChIJlzqRiDTXDIgRKB7rQIu9wyc,"{'compound_code': '4Q44+RC Champaign, Champaign City Township, IL, United States', 'global_code': '86GH4Q44+RC'}",2.0,4.1,ChIJlzqRiDTXDIgRKB7rQIu9wyc,GOOGLE,289.0,"723 South Neil Street, Champaign",40.107102000000005,-88.243891,POINT (-88.243891 40.107102),4
45,902057347c8bf15ceca22304fd8c251960f5b672,subway restaurants,{'open_now': True},ChIJFeza-BPXDIgR0sQT4M9X1Ks,"{'compound_code': '4Q4H+F8 Urbana, Cunningham Township, IL, United States', 'global_code': '86GH4Q4H+F8'}",1.0,3.5,ChIJFeza-BPXDIgR0sQT4M9X1Ks,GOOGLE,22.0,"701 South Gregory Street A, Urbana",40.1062122,-88.2216765,POINT (-88.2216765 40.1062122),3
46,69c283db12a1d0e43e1d4fb2f830a9b86e5f2488,thara thai restaurant,{'open_now': True},ChIJA7nJkwnaDIgRqKSiWJAo6mg,"{'compound_code': '4PMQ+FP Champaign, Champaign City Township, IL, United States', 'global_code': '86GH4PMQ+FP'}",2.0,4.7,ChIJA7nJkwnaDIgRqKSiWJAo6mg,GOOGLE,344.0,"912 1/2 West Bloomington Road, Champaign",40.13366309999999,-88.26067599999998,POINT (-88.26067599999998 40.13366309999999),5
47,e44d3c68b0da46325e608e4f03c4d52687c0f77b,subway restaurants,{'open_now': True},ChIJ8c7Y40vXDIgRotdSB70bTN8,"{'compound_code': '4Q85+CH Champaign, Champaign City Township, IL, United States', 'global_code': '86GH4Q85+CH'}",1.0,3.4,ChIJ8c7Y40vXDIgRotdSB70bTN8,GOOGLE,21.0,"45 E University Suite 101 Urbana Mass Transit Ctr, Champaign",40.11606949999999,-88.2410781,POINT (-88.2410781 40.11606949999999),3
48,85eed47af1ffc89ddaf1dc6a85d8dbdb374e02d7,5 alarm bar-b-que,{'open_now': False},ChIJw-Vf7KLuMIgRmc5kqikBcrs,"{'compound_code': 'C64H+FR Parma, Ohio, United States', 'global_code': '86HWC64H+FR'}",2.0,0.0,ChIJw-Vf7KLuMIgRmc5kqikBcrs,GOOGLE,0.0,"12000 Snow Road, Parma",41.4061592,-81.7703923,POINT (-81.7703923 41.4061592),0
49,a6047470631082c3e33f0d9093fa2f031b345405,harry buffalo parma,{'open_now': True},ChIJBTxTpVLpMIgR31wImaayCbg,"{'compound_code': '96PJ+9H Parma Heights, Ohio, United States', 'global_code': '86HW96PJ+9H'}",2.0,3.9,ChIJBTxTpVLpMIgR31wImaayCbg,GOOGLE,519.0,"6425 Pearl Road, Parma Heights",41.38594249999999,-81.76855340000002,POINT (-81.76855340000002 41.38594249999999),4
50,f45554f460e43f7b2676ec78e1cd8b0e59098298,einstein bros. bagels,{'open_now': False},ChIJL0ehMeXrMIgRx0_q8b3X2rk,"{'compound_code': '96J7+2X Middleburg Heights, Ohio, United States', 'global_code': '86HW96J7+2X'}",1.0,4.2,ChIJL0ehMeXrMIgRx0_q8b3X2rk,GOOGLE,105.0,"6799 Pearl Road, Middleburg Heights",41.38005689999999,-81.7850107,POINT (-81.7850107 41.38005689999999),4
51,548995ec01b6679fd7778b05cafb26bccd9df712,antonio's real italian pizza,{'open_now': True},ChIJN1oyn6LuMIgRWBkjKKWg3jc,"{'compound_code': 'C64J+C6 Parma, Ohio, United States', 'global_code': '86HWC64J+C6'}",2.0,4.3,ChIJN1oyn6LuMIgRWBkjKKWg3jc,GOOGLE,167.0,"5722 Chevrolet Boulevard, Parma",41.4060902,-81.76937740000001,POINT (-81.76937740000001 41.4060902),4
52,63167d81908718ba1213ad45b539bb10aca95495,subway restaurants,{'open_now': True},ChIJtVSujscpykwR2E-67Zes8sM,"{'compound_code': 'XGHX+G9 Champlain, NY, United States', 'global_code': '87P8XGHX+G9'}",1.0,3.5,ChIJtVSujscpykwR2E-67Zes8sM,GOOGLE,17.0,"2018 Ridge Road, Champlain",44.97875790000001,-73.4515699,POINT (-73.4515699 44.97875790000001),3
53,af343e3435f9c91f15e7155c6b5fc3c84b72656d,pizza plus,{'open_now': True},ChIJifDHOccpykwR4tAL6JfmLMc,"{'compound_code': 'XHH3+PR Champlain, NY, United States', 'global_code': '87P8XHH3+PR'}",2.0,4.0,ChIJifDHOccpykwR4tAL6JfmLMc,GOOGLE,12.0,"880 U.S. 11, Champlain",44.9793251,-73.4453754,POINT (-73.4453754 44.9793251),4
54,3c30fda1936708a7630bb543529b996da71659d3,jreck subs,{'open_now': True},ChIJ38dZGscpykwR-7I45xXociI,"{'compound_code': 'XGJX+82 Champlain, NY, United States', 'global_code': '87P8XGJX+82'}",1.0,4.0,ChIJ38dZGscpykwR-7I45xXociI,GOOGLE,46.0,"15 Church Street, Champlain",44.98081570000001,-73.4524491,POINT (-73.4524491 44.98081570000001),4
55,274363605a806f7821db2894b5a0e179d32f8639,nathan's,{'open_now': True},ChIJMc2RT8ApykwRUo4wfK640tE,"{'compound_code': 'XGJR+HC Champlain, NY, United States', 'global_code': '87P8XGJR+HC'}",1.0,3.0,ChIJMc2RT8ApykwRUo4wfK640tE,GOOGLE,10.0,"1038 U.S. 11, Champlain",44.981406299999996,-73.4589448,POINT (-73.4589448 44.9814063),3
56,f577c76f612cab005bac35323434abc992ab05ac,dunkin',{'open_now': True},ChIJMc2RT8ApykwR-DEuXEtbMbo,"{'compound_code': 'XGJR+H7 Champlain, NY, United States', 'global_code': '87P8XGJR+H7'}",1.0,3.2,ChIJMc2RT8ApykwR-DEuXEtbMbo,GOOGLE,58.0,"1038 Maine 11, Champlain",44.9814893,-73.45927689999998,POINT (-73.45927689999998 44.9814893),3
57,4af9131e0254e6e667e912366fe8e6c8b8078c23,tom's bbq - chandler,{'open_now': True},ChIJ-1OLz3gAK4cRkp5PXd3-JlU,"{'compound_code': '747R+W8 Chandler, Arizona, United States', 'global_code': '855C747R+W8'}",2.0,4.1,ChIJ-1OLz3gAK4cRkp5PXd3-JlU,GOOGLE,131.0,"2820 South Alma School Road #6, Chandler",33.264800699999995,-111.85921840000002,POINT (-111.8592184 33.2648007),4
58,d23c4f43f2de05dc5bc7189daa9661aebf030fcd,amalfi pizzeria,{'open_now': True},ChIJNWmlSgcAK4cR-7jSMhoEZUY,"{'compound_code': '64MV+C7 Chandler, Arizona, United States', 'global_code': '855C64MV+C7'}",2.0,4.3,ChIJNWmlSgcAK4cR-7jSMhoEZUY,GOOGLE,102.0,"4991 South Alma School Road #12, Chandler",33.233624,-111.8568129,POINT (-111.8568129 33.233624),4
59,0ddd0135de9809c36fe7ba2e6f3d7694d5a8c3c0,einstein bros. bagels,{'open_now': False},ChIJ9ZeNmXgAK4cRsE0kgte_0NY,"{'compound_code': '747V+C3 Chandler, Arizona, United States', 'global_code': '855C747V+C3'}",1.0,4.1,ChIJ9ZeNmXgAK4cRsE0kgte_0NY,GOOGLE,110.0,"2925 South Alma School Road Ste 1, Chandler",33.263565899999996,-111.85729280000001,POINT (-111.8572928 33.2635659),4
60,201325723493f7cd9000ced20e652db1e69dede0,panda buffet restaurant,{'open_now': True},ChIJNVNNIySqMYgRJmVtMC_QWHA,"{'compound_code': 'JHG8+J9 Willoughby, Ohio, United States', 'global_code': '86HWJHG8+J9'}",1.0,3.9,ChIJNVNNIySqMYgRJmVtMC_QWHA,GOOGLE,218.0,"35535 Euclid Avenue #5, Willoughby",41.626621,-81.434079,POINT (-81.434079 41.626621),4
61,9388a55f27aa06473eec4ccbb37cf78aa938a307,the honey baked ham company,{'open_now': False},ChIJo9bbvySqMYgRdN52_LA2C_o,"{'compound_code': 'JHG7+98 Willoughby, Ohio, United States', 'global_code': '86HWJHG7+98'}",2.0,4.5,ChIJo9bbvySqMYgRdN52_LA2C_o,GOOGLE,98.0,"35101 Euclid Avenue, Willoughby",41.62591219999999,-81.43672889999998,POINT (-81.43672889999998 41.62591219999999),4
63,8e9c4d2ebc29307146f7bce70d88d98f298adfd6,the saguaro scottsdale,{'open_now': True},ChIJWUTFr7gLK4cRuaPTNtZl218,"{'compound_code': 'F3VG+RW Scottsdale, Arizona, United States', 'global_code': '855CF3VG+RW'}",2.0,4.1,ChIJWUTFr7gLK4cRuaPTNtZl218,GOOGLE,783.0,"4000 North Drinkwater Boulevard, Scottsdale",33.494546,-111.922673,POINT (-111.922673 33.494546),4
64,2856e5e73d13b3ef356ed7bf0a0fa25ba28be6f7,the mission,{'open_now': True},ChIJDdNrlMALK4cRA3sbU-Dkxzw,"{'compound_code': 'F3RG+Q7 Scottsdale, Arizona, United States', 'global_code': '855CF3RG+Q7'}",2.0,4.4,ChIJDdNrlMALK4cRA3sbU-Dkxzw,GOOGLE,1102.0,"3815 North Brown Avenue, Scottsdale",33.4918767,-111.9242557,POINT (-111.9242557 33.4918767),4
65,8f880e1e7e2fa2d8020cf008e79f7d0257be0dd5,bespoke inn scottsdale,{'open_now': True},ChIJcxLCI8ALK4cR54-uJdcrxe4,"{'compound_code': 'F3RC+7R Scottsdale, Arizona, United States', 'global_code': '855CF3RC+7R'}",2.0,4.8,ChIJcxLCI8ALK4cR54-uJdcrxe4,GOOGLE,68.0,"3701 North Marshall Way, Scottsdale",33.490712800000004,-111.92799270000002,POINT (-111.9279927 33.4907128),5
66,d4ccb08f50f1cea38684a0f06d03b0641713d1fc,blue moose,{'open_now': True},ChIJl3i6l8ALK4cRMfd5bxuj93E,"{'compound_code': 'F3RG+RQ Scottsdale, Arizona, United States', 'global_code': '855CF3RG+RQ'}",2.0,4.5,ChIJl3i6l8ALK4cRMfd5bxuj93E,GOOGLE,89.0,"7373 East Scottsdale Mall # 22, Scottsdale",33.4920794,-111.92305859999999,POINT (-111.9230586 33.4920794),4
67,af6b4be44db1208e86d522cc28ccd679dfd9c425,daily dose old town bar & grill,{'open_now': False},ChIJ56n0u78LK4cRTdS09RvXv1E,"{'compound_code': 'F3VF+QF Scottsdale, Arizona, United States', 'global_code': '855CF3VF+QF'}",2.0,4.5,ChIJ56n0u78LK4cRTdS09RvXv1E,GOOGLE,529.0,"4020 North Scottsdale Road # 101, Scottsdale",33.494388300000004,-111.9263237,POINT (-111.9263237 33.4943883),4
68,e86ca115afa4b87629a737a4cf7bf5c0477eaee2,zuzu at hotel valley ho,{'open_now': False},ChIJrVJkm5QLK4cRSzXhNMtIs8U,"{'compound_code': 'F3V8+CM Scottsdale, Arizona, United States', 'global_code': '855CF3V8+CM'}",2.0,4.6,ChIJrVJkm5QLK4cRSzXhNMtIs8U,GOOGLE,164.0,"6850 East Main Street, Scottsdale",33.493611,-111.933333,POINT (-111.933333 33.493611),5
69,9683ced27d1b72a3a09a6a7da1e93e65c8623621,az/88,{'open_now': True},ChIJSYnAvMALK4cRIVgKZTKIqMk,"{'compound_code': 'F3VG+4Q Scottsdale, Arizona, United States', 'global_code': '855CF3VG+4Q'}",2.0,4.5,ChIJSYnAvMALK4cRIVgKZTKIqMk,GOOGLE,673.0,"7353 East Scottsdale Mall, Scottsdale",33.49275,-111.923056,POINT (-111.923056 33.49275),4
70,df1816ab69f46b46020f3f7055843e0371c4295a,phở cao,{'open_now': True},ChIJkxGcZxgJK4cRh7zq7Md7cmo,"{'compound_code': 'F38H+9R Scottsdale, Arizona, United States', 'global_code': '855CF38H+9R'}",2.0,4.1,ChIJkxGcZxgJK4cRh7zq7Md7cmo,GOOGLE,541.0,"7436 East McDowell Road, Scottsdale",33.465963800000004,-111.92047779999999,POINT (-111.9204778 33.4659638),4
71,3956703b6afb4f3254f1d0d086abc34ba701ee9c,aladdin's eatery cleveland heights,{'open_now': True},ChIJ8csIzXr8MIgRlyQxbDb7Mns,"{'compound_code': 'GC24+FW Cleveland Heights, Ohio, United States', 'global_code': '86HWGC24+FW'}",2.0,4.5,ChIJ8csIzXr8MIgRlyQxbDb7Mns,GOOGLE,377.0,"12447 Cedar Road, Cleveland Heights",41.501225700000006,-81.59274559999999,POINT (-81.59274559999999 41.50122570000001),4
72,59eacd84aa183b19582c970f7c26371e17cc7d0e,washington place bistro & inn,{'open_now': True},ChIJSzrpdHf8MIgRALPh1riFpEY,"{'compound_code': 'G93X+QR Cleveland, Ohio, United States', 'global_code': '86HWG93X+QR'}",3.0,4.6,ChIJSzrpdHf8MIgRALPh1riFpEY,GOOGLE,247.0,"2203 Cornell Road, Cleveland",41.5044814,-81.60044959999998,POINT (-81.60044959999998 41.5044814),5
73,0be9e28c440c6571a1ba8333d22bed2184c0ab66,"rascal house -university circle cleveland, oh",{'open_now': True},ChIJ3T6Vmon7MIgRKGy5_dJO-0w,"{'compound_code': 'G95V+8Q Cleveland, Ohio, United States', 'global_code': '86HWG95V+8Q'}",2.0,3.8,ChIJ3T6Vmon7MIgRKGy5_dJO-0w,GOOGLE,331.0,"11316 Euclid Avenue, Cleveland",41.5083581,-81.6055319,POINT (-81.6055319 41.5083581),4
74,592aec7c4f523c114a43c9d859f3917661d4fe3c,trattoria on the hill,{'open_now': True},ChIJXWf3-XP8MIgR4Z63RuTpNBw,"{'compound_code': 'GC52+GW Cleveland, Ohio, United States', 'global_code': '86HWGC52+GW'}",2.0,4.4,ChIJXWf3-XP8MIgR4Z63RuTpNBw,GOOGLE,613.0,"12207 Mayfield Road, Cleveland",41.5088723,-81.5977166,POINT (-81.5977166 41.5088723),4
75,b76cd55693497e6216aea067c1106cf0847aebeb,"william j. nageotte, pa",,ChIJUXh0BJn7MIgR2UTLW1MAEko,"{'compound_code': 'G92H+XC Cleveland, Ohio, United States', 'global_code': '86HWG92H+XC'}",2.0,0.0,ChIJUXh0BJn7MIgR2UTLW1MAEko,GOOGLE,0.0,"9500 Euclid Avenue, Cleveland",41.5024373,-81.62148959999998,POINT (-81.62148959999998 41.5024373),0
77,26f2ae3a88c2d4b79c2af4b33b2048d1f2fc0d5e,felice urban cafe,{'open_now': True},ChIJ68ODOoT8MIgRECtTomlLENQ,"{'compound_code': 'FCQ3+2H Cleveland, Ohio, United States', 'global_code': '86HWFCQ3+2H'}",2.0,4.6,ChIJ68ODOoT8MIgRECtTomlLENQ,GOOGLE,195.0,"12502 Larchmere Boulevard, Cleveland",41.4875683,-81.59601049999998,POINT (-81.59601049999998 41.4875683),5
78,839bd7e396b7f59bf1673ff3697bc9825664289b,the honey baked ham company,{'open_now': False},ChIJvensg4goMYgRGVjICWFN7gY,"{'compound_code': '4G7J+MG Akron, Ohio, United States', 'global_code': '86HW4G7J+MG'}",2.0,4.4,ChIJvensg4goMYgRGVjICWFN7gY,GOOGLE,29.0,"2000 Brittain Road Suite 217, Akron",41.11424489999999,-81.46875,POINT (-81.46875 41.11424489999999),4
79,851626c94b5c6b681d9ae640e83a1a025f3acdae,o'charley’s restaurant & bar,{'open_now': True},ChIJKcQ7cnooMYgR-MaWCjAx2pw,"{'compound_code': '4G99+V4 Cuyahoga Falls, Ohio, United States', 'global_code': '86HW4G99+V4'}",2.0,4.2,ChIJKcQ7cnooMYgR-MaWCjAx2pw,GOOGLE,1279.0,"283 Howe Avenue, Cuyahoga Falls",41.11965599999999,-81.482224,POINT (-81.482224 41.11965599999999),4
80,cff83a17508ab1904d801c0d017d0677f7bacfee,seven grains natural market,{'open_now': True},ChIJR7X66cAoMYgR2wIVeHhBQjY,"{'compound_code': '4H23+PM Tallmadge, Brimfield Township, OH, United States', 'global_code': '86HW4H23+PM'}",2.0,4.2,ChIJR7X66cAoMYgR2wIVeHhBQjY,GOOGLE,38.0,"92 West Avenue, Tallmadge",41.10186919999999,-81.4457815,POINT (-81.4457815 41.10186919999999),4
81,f19ba24bac662e2330a37fff8b2d7f51d2818558,subway restaurants,{'open_now': True},ChIJ94YWOLilK4cRBlnPfrprL5A,"{'compound_code': 'C7X7+HW Mesa, Arizona, United States', 'global_code': '855CC7X7+HW'}",1.0,3.7,ChIJ94YWOLilK4cRBlnPfrprL5A,GOOGLE,41.0,"4425 E McKellips #102, Mesa",33.448895199999995,-111.7351496,POINT (-111.7351496 33.4488952),4
82,f0521ebfdc1d0773bbf4f46f6b210f43029e0581,subway restaurants,{'open_now': True},ChIJwc5MyIqlK4cRr8Zndc610vU,"{'compound_code': 'C7C7+W3 Mesa, Arizona, United States', 'global_code': '855CC7C7+W3'}",1.0,3.6,ChIJwc5MyIqlK4cRr8Zndc610vU,GOOGLE,59.0,"4355 E University Drive, Space 116 (2), Greenfield Plaza, Mesa",33.4222741,-111.73733529999998,POINT (-111.7373353 33.4222741),4
83,eb41650a86e7cb993233f8b420408ed4b06e5b6a,alessia's | ristorante italiano,{'open_now': True},ChIJdSfE9JylK4cRnkUyKW7g9Mc,"{'compound_code': 'C7PM+F6 Mesa, Arizona, United States', 'global_code': '855CC7PM+F6'}",2.0,4.5,ChIJdSfE9JylK4cRnkUyKW7g9Mc,GOOGLE,330.0,"5251 East Brown Road, Mesa",33.4361313,-111.71689690000001,POINT (-111.7168969 33.4361313),4
84,980f331a0445dadbaa45f2c41aaf67483b09c3c9,subway restaurants,{'open_now': True},ChIJ4eJbVB0-K4cRlfLSps2F77c,"{'compound_code': 'CQF5+9W Phoenix, Arizona, United States', 'global_code': '8559CQF5+9W'}",1.0,3.8,ChIJ4eJbVB0-K4cRlfLSps2F77c,GOOGLE,51.0,"2632 South 83rd Avenue #108, Phoenix",33.4234357,-112.2401425,POINT (-112.2401425 33.4234357),4
85,a0542d311635704ae92b0fd98c690ec6b454aad5,subway restaurants,{'open_now': True},ChIJQQ3Z8OQVK4cRGOkQiLflxRI,"{'compound_code': 'CQCG+93 Phoenix, Arizona, United States', 'global_code': '8559CQCG+93'}",1.0,3.6,ChIJQQ3Z8OQVK4cRGOkQiLflxRI,GOOGLE,29.0,"7625 West Lower Buckeye Road, Phoenix",33.420922600000004,-112.2248345,POINT (-112.2248345 33.4209226),4
86,0c9be298fe832547eb035ab1a2c3b501df924917,famous palermo's pizza,{'open_now': True},ChIJ4eJbVB0-K4cRfJbOWj_ikIY,"{'compound_code': 'CQF5+WX Phoenix, Arizona, United States', 'global_code': '8559CQF5+WX'}",2.0,4.3,ChIJ4eJbVB0-K4cRfJbOWj_ikIY,GOOGLE,144.0,"2632 South 83rd Avenue, Phoenix",33.4248604,-112.24003640000001,POINT (-112.2400364 33.4248604),4
87,9bf539db06add4087094441996c6bc0dce244a25,fruit coctel truck,{'open_now': True},ChIJpTtHpHoVK4cR8uBNwMbTV2Q,"{'compound_code': 'CQPV+VQ Phoenix, Arizona, United States', 'global_code': '8559CQPV+VQ'}",2.0,0.0,ChIJpTtHpHoVK4cR8uBNwMbTV2Q,GOOGLE,0.0,"the field, 91ave south west corner of buckeye road in, West Buckeye Road, Phoenix",33.437194,-112.20552409999999,POINT (-112.2055241 33.437194),0
88,1d36d6dd786856e0459b28ad26070c5ddfcbb271,el guero restaurant,{'open_now': False},ChIJS1fLt9kVK4cRpbAl2uuS_dw,"{'compound_code': 'CQFW+28 Estrella Village, Phoenix, AZ, United States', 'global_code': '8559CQFW+28'}",2.0,3.7,ChIJS1fLt9kVK4cRpbAl2uuS_dw,GOOGLE,78.0,"2822 South 67th Avenue, Phoenix",33.4226204,-112.20419629999999,POINT (-112.2041963 33.4226204),4
89,b47e0e3fb2258569f37676b6049d163d4b505e46,subway restaurants,{'open_now': True},ChIJP7Wqw_FSLIYRSQ8rO9oOtO8,"{'compound_code': 'J5PW+74 Monticello, Marion Township, AR, United States', 'global_code': '865CJ5PW+74'}",1.0,3.5,ChIJP7Wqw_FSLIYRSQ8rO9oOtO8,GOOGLE,37.0,"427 U.S. 425, Monticello",33.63568410000001,-91.804725,POINT (-91.804725 33.63568410000001),3
90,bd71a72e2ebba85a8f16a8cbafc260b70e48bbc9,ray's,{'open_now': True},ChIJdXihZOxSLIYReQQpa4MuOVk,"{'compound_code': 'J5JW+2W Monticello, Marion Township, AR, United States', 'global_code': '865CJ5JW+2W'}",2.0,4.2,ChIJdXihZOxSLIYReQQpa4MuOVk,GOOGLE,356.0,"207 U.S. 425, Monticello",33.630058399999996,-91.8026952,POINT (-91.8026952 33.6300584),4
91,b5a258e0e21c9a105385219bd93a828932bbcb21,mazzio's italian eatery,{'open_now': True},ChIJf_dcM_BSLIYRIpe5wUmTdzI,"{'compound_code': 'J5QX+R6 Monticello, Marion Township, AR, United States', 'global_code': '865CJ5QX+R6'}",2.0,3.9,ChIJf_dcM_BSLIYRIpe5wUmTdzI,GOOGLE,146.0,"509 U.S. 425, Monticello",33.6395468,-91.8018801,POINT (-91.80188010000001 33.6395468),4
92,86edc535bddd9baf33ce2d9b77acac8fc4cb73ee,western sizzlin,{'open_now': True},ChIJTQUReZJSLIYR8wF5YB7h2co,"{'compound_code': 'J5PX+RJ Monticello, Marion Township, AR, United States', 'global_code': '865CJ5PX+RJ'}",2.0,3.2,ChIJTQUReZJSLIYR8wF5YB7h2co,GOOGLE,256.0,"436 U.S. 425, Monticello",33.63701669999999,-91.8009292,POINT (-91.8009292 33.63701669999999),3
93,2bcfe4740378a3d60dbf9153d574e465f1e3446d,tiny thai place,{'open_now': True},ChIJh8FuzD9SLIYRfVCIRPX7RBM,"{'compound_code': 'J59X+HP Monticello, Marion Township, AR, United States', 'global_code': '865CJ59X+HP'}",2.0,4.0,ChIJh8FuzD9SLIYRfVCIRPX7RBM,GOOGLE,118.0,"512 U.S. 425, Monticello",33.618887799999996,-91.800748,POINT (-91.800748 33.6188878),4
94,1e93809191085ac1c6ebaf7a63e9edc458e9daa6,omg hibachi,{'open_now': True},ChIJZyCkf_tSLIYRKmAS9FqSM7s,"{'compound_code': 'J5VX+CW Monticello, Marion Township, AR, United States', 'global_code': '865CJ5VX+CW'}",2.0,4.7,ChIJZyCkf_tSLIYRKmAS9FqSM7s,GOOGLE,55.0,"836 U.S. 425, Monticello",33.643536700000006,-91.80024920000001,POINT (-91.80024920000001 33.64353670000001),5
95,556d046c277980e0058c88599bb5b2709984a2d6,huddle house,{'open_now': True},ChIJLS8E8_xSLIYR1s-ggTvvAaI,"{'compound_code': 'J5WX+3Q Monticello, Marion Township, AR, United States', 'global_code': '865CJ5WX+3Q'}",1.0,3.7,ChIJLS8E8_xSLIYR1s-ggTvvAaI,GOOGLE,236.0,"910 U.S. 425, Monticello",33.64521319999999,-91.800532,POINT (-91.800532 33.64521319999999),4
96,fd67b67aab9b2b7db90cf6de8aa982718e85f955,breaker drive-inn,{'open_now': True},ChIJqS4Jj_RSLIYRj2YZ9Xwh0y8,"{'compound_code': 'J6H3+H7 Monticello, Marion Township, AR, United States', 'global_code': '865CJ6H3+H7'}",2.0,4.5,ChIJqS4Jj_RSLIYRj2YZ9Xwh0y8,GOOGLE,196.0,"523 West Gaines Street, Monticello",33.62892730000001,-91.7968369,POINT (-91.7968369 33.62892730000001),4
97,b5cc9979cd52cd95bbfc62d91af830e55b0fce33,ameca restaurant,{'open_now': True},ChIJA9-EBvBSLIYRrzLjP8Sxz-o,"{'compound_code': 'J5QW+2V Monticello, Marion Township, AR, United States', 'global_code': '865CJ5QW+2V'}",1.0,4.3,ChIJA9-EBvBSLIYRrzLjP8Sxz-o,GOOGLE,184.0,"3952, 149 North Park Drive, Monticello",33.6376,-91.802851,POINT (-91.802851 33.6376),4
98,715021eb4f7f014a481d6c8567384c450c102cd3,pineville ice house,,ChIJu3M2RI6cVogRTS8100rZEM0,"{'compound_code': '34J8+QC Pineville, 14, Pineville, NC, United States', 'global_code': '867X34J8+QC'}",2.0,4.4,ChIJu3M2RI6cVogRTS8100rZEM0,GOOGLE,121.0,"400 Towne Centre Boulevard, Pineville",35.081921,-80.883932,POINT (-80.883932 35.081921),4
99,b7be1429c299168ef05d9ec538f3c69b4869935e,the waldhorn restaurant,{'open_now': True},ChIJj1VdY5GcVogRFsvasU1qLTo,"{'compound_code': '34G9+J3 Pineville, 14, Pineville, NC, United States', 'global_code': '867X34G9+J3'}",2.0,4.6,ChIJj1VdY5GcVogRFsvasU1qLTo,GOOGLE,1134.0,"12101 Lancaster Highway, Pineville",35.07651,-80.8823508,POINT (-80.8823508 35.07651),5
100,d54076ae2d84da568040a9e0537926e07883281d,the honey baked ham company,{'open_now': False},ChIJz8L02wCdVogRVZAW4vKXA6g,"{'compound_code': '35P2+F3 Charlotte, 1, Charlotte, NC, United States', 'global_code': '867X35P2+F3'}",2.0,4.5,ChIJz8L02wCdVogRVZAW4vKXA6g,GOOGLE,63.0,"7649 Pineville-Matthews Road, Charlotte",35.086169,-80.84987400000001,POINT (-80.84987400000001 35.086169),4
101,5245df9f670ae976ca08909d4a620a15e942f31d,viet thai noodle house,{'open_now': True},ChIJJ93aOf-cVogRZ2M_SeqUzb4,"{'compound_code': '34QR+VP Pineville, 14, Pineville, NC, United States', 'global_code': '867X34QR+VP'}",2.0,4.5,ChIJJ93aOf-cVogRZ2M_SeqUzb4,GOOGLE,275.0,"8314 Pineville-Matthews Road, Charlotte",35.0897032,-80.85824659999999,POINT (-80.85824659999999 35.0897032),4
103,541e67d07143feab6d29d9bb04e5b28ebd0b9a0a,paradise valley mall,{'open_now': True},ChIJd9MCnrtzK4cRsc50gLB8S9I,"{'compound_code': 'J228+XH Phoenix, Arizona, United States', 'global_code': '855CJ228+XH'}",2.0,3.9,ChIJd9MCnrtzK4cRsc50gLB8S9I,GOOGLE,4913.0,"4568 East Cactus Road, Phoenix",33.6024761,-111.98357820000001,POINT (-111.9835782 33.6024761),4
104,f7f9206835ab456fe499ca6ee1590b8be92a06a3,stonecreek golf club,{'open_now': True},ChIJaUectaVzK4cREg2B_ZCsSjk,"{'compound_code': 'H2W8+32 Phoenix, Arizona, United States', 'global_code': '855CH2W8+32'}",2.0,4.1,ChIJaUectaVzK4cREg2B_ZCsSjk,GOOGLE,295.0,"4435 East Paradise Village Parkway South, Phoenix",33.595163,-111.98489099999999,POINT (-111.984891 33.595163),4
105,3ee3c5f73c70d300e457b74b565481065297404f,picazzo's healthy italian kitchen paradise valley,{'open_now': True},ChIJZeV6eqNzK4cR4aiwNE16mSo,"{'compound_code': 'H2W9+WF Phoenix, Arizona, United States', 'global_code': '855CH2W9+WF'}",2.0,4.6,ChIJZeV6eqNzK4cR4aiwNE16mSo,GOOGLE,355.0,"4669 East Cactus Road, Phoenix",33.597347,-111.981268,POINT (-111.981268 33.597347),5
106,b89cbe484c9a399cb049e9bb2e5d099d21a14159,"chompie's restaurant, deli, and bakery",{'open_now': True},ChIJ3Ud1T6NzK4cRAguNepabtcE,"{'compound_code': 'J239+3F Phoenix, Arizona, United States', 'global_code': '855CJ239+3F'}",2.0,4.4,ChIJ3Ud1T6NzK4cRAguNepabtcE,GOOGLE,622.0,"4550 East Cactus Road, Phoenix",33.60268,-111.98136799999999,POINT (-111.981368 33.60268),4
107,d5df316411fbaf351ad8fbc079cc3a4d93920e01,the honey baked ham company,{'open_now': True},ChIJ97h0UKNzK4cRAg7tEZG57Bc,"{'compound_code': 'H2X8+7H Phoenix, Arizona, United States', 'global_code': '855CH2X8+7H'}",2.0,4.1,ChIJ97h0UKNzK4cRAg7tEZG57Bc,GOOGLE,63.0,"4635 East Cactus Road, Phoenix",33.5981776,-111.98359099999999,POINT (-111.983591 33.5981776),4
108,763cd6b0b792c93aeda074ee1bbc313ebd110bfd,subway restaurants,{'open_now': True},ChIJAePvvbpzK4cRpR5Y21_Fm9s,"{'compound_code': 'H2X6+Q8 Phoenix, Arizona, United States', 'global_code': '855CH2X6+Q8'}",1.0,4.1,ChIJAePvvbpzK4cRpR5Y21_Fm9s,GOOGLE,65.0,"4326 East Cactus Road C01, Phoenix",33.59948809999999,-111.98917479999999,POINT (-111.9891748 33.59948809999999),4
109,77a9bb1ba6480e638a18a103051f508cde00265d,subway restaurants,{'open_now': True},ChIJZ9Ofj8bAVogRSRntrdM1W3w,"{'compound_code': '8R95+46 Dallas, NC, United States', 'global_code': '867W8R95+46'}",1.0,3.9,ChIJZ9Ofj8bAVogRSRntrdM1W3w,GOOGLE,115.0,"3129 Dallas High Shoals Highway, Dallas",35.31780449999999,-81.19198890000001,POINT (-81.19198890000001 35.31780449999999),4
110,6c6482204a9c04487a46cc81bd8e446ad508045d,dunkin',{'open_now': True},ChIJZRrsevXAVogRc4c7ey9ujP8,"{'compound_code': '7RQ6+RJ Gastonia, NC, United States', 'global_code': '867W7RQ6+RJ'}",1.0,3.7,ChIJZRrsevXAVogRc4c7ey9ujP8,GOOGLE,311.0,"2165 North Chester Street, Gastonia",35.289597799999996,-81.18843079999998,POINT (-81.18843079999998 35.2895978),4
111,d1f7629d1a906ddba1153051e42bb6b5742f0f42,franky t's pizzeria gastonia/dallas nc,{'open_now': True},ChIJN09SIWO_VogRfqnWwrTkJKM,"{'compound_code': '7RXQ+9R Gastonia, NC, United States', 'global_code': '867W7RXQ+9R'}",2.0,4.2,ChIJN09SIWO_VogRfqnWwrTkJKM,GOOGLE,146.0,"2211 North New Hope Road E, Gastonia",35.2984096,-81.1604493,POINT (-81.1604493 35.2984096),4
112,76b3c899d7eaee994d1ebc802cb88747bbde1f04,dairy queen store,{'open_now': True},ChIJr9VNJcHAVogRLWuf9D61KTs,"{'compound_code': '8R76+VF Dallas, NC, United States', 'global_code': '867W8R76+VF'}",1.0,4.2,ChIJr9VNJcHAVogRLWuf9D61KTs,GOOGLE,182.0,"108 College View Drive, Dallas",35.3146688,-81.1887619,POINT (-81.1887619 35.3146688),4
113,7aaed9cb3617898728224f22e854da2055d06df2,dual - hardee''s / red burrito,{'open_now': True},ChIJcU331yQfIRURmNmihbz3NVE,"{'compound_code': '7RQ6+HH Gastonia, NC, United States', 'global_code': '867W7RQ6+HH'}",1.0,3.6,ChIJcU331yQfIRURmNmihbz3NVE,GOOGLE,309.0,"2135 North Chester Street, Gastonia",35.2889645,-81.18855140000001,POINT (-81.18855140000001 35.2889645),4
114,55044f1dd3319ccfd433c8e4d80a9afa31ffcad9,industrial cafe,,ChIJZwsZY27dNIgRLG2VuAKgSOM,"{'compound_code': '876G+FC Irwin, Pennsylvania, United States', 'global_code': '87G2876G+FC'}",2.0,0.0,ChIJZwsZY27dNIgRLG2VuAKgSOM,GOOGLE,0.0,"1061 Main Street # 17, Irwin",40.31123999999999,-79.72396599999998,POINT (-79.72396599999998 40.31123999999999),0
115,c69a1249160f4eb258cf25f1a9ff5c81416eaeb9,subway restaurants,{'open_now': True},ChIJWU3E_t7cNIgRAUSXhvxxTwI,"{'compound_code': '8895+H6 Irwin, Pennsylvania, United States', 'global_code': '87G28895+H6'}",1.0,4.4,ChIJWU3E_t7cNIgRAUSXhvxxTwI,GOOGLE,27.0,"8712 Norwin Ave Unit #33 Norwin Hills S/C Plaza East, Irwin",40.31887689999999,-79.69191509999999,POINT (-79.69191509999999 40.31887689999999),4
116,e75acccb6dd7c8ebc92f24c646737e8c7abb9c42,subway restaurants,{'open_now': True},ChIJAX-FEVrdNIgR8hftIj6nUgc,"{'compound_code': '87H8+JF North Huntingdon, North Huntingdon Township, PA, United States', 'global_code': '87G287H8+JF'}",1.0,4.0,ChIJAX-FEVrdNIgR8hftIj6nUgc,GOOGLE,91.0,"11440 Lincoln Highway, North Huntingdon",40.329109499999994,-79.73376970000001,POINT (-79.73376970000001 40.32910949999999),4
117,c473ea1d52da0f2fcc97d275947c789f94f59e88,dunkin',{'open_now': True},ChIJ0zsuUCfdNIgRaW9xM-mL_z8,"{'compound_code': '87FX+8X Irwin, Pennsylvania, United States', 'global_code': '87G287FX+8X'}",1.0,3.8,ChIJ0zsuUCfdNIgRaW9xM-mL_z8,GOOGLE,197.0,"9504 Lincoln Highway E, Irwin",40.3233003,-79.7000973,POINT (-79.7000973 40.3233003),4
118,3c83194247f1b1a128f963d54922aee28aec0c19,colonial grille restaurant and taproom,{'open_now': True},ChIJ0Z1VXDHdNIgREOpd_A8oR20,"{'compound_code': '87JQ+VM Irwin, Pennsylvania, United States', 'global_code': '87G287JQ+VM'}",1.0,4.5,ChIJ0Z1VXDHdNIgREOpd_A8oR20,GOOGLE,330.0,"333 Main Street, Irwin",40.3321581,-79.71075689999998,POINT (-79.71075689999998 40.3321581),4
119,eb405d432c27577e816c049d56a6a6a07730e0bf,mr mike's,{'open_now': True},ChIJucymICfdNIgRzGG73W-eNZI,"{'compound_code': '88F2+7V Irwin, Pennsylvania, United States', 'global_code': '87G288F2+7V'}",2.0,4.0,ChIJucymICfdNIgRzGG73W-eNZI,GOOGLE,162.0,"9379 Lincoln Highway, Irwin",40.3231493,-79.69776230000001,POINT (-79.69776230000001 40.3231493),4
120,bdad7b9e8008383967699f44750453ceb4654517,pasqualino's italian eatery,{'open_now': True},ChIJk9O5VtzcNIgRr_wUj3f6kGQ,"{'compound_code': '8897+H5 Irwin, Pennsylvania, United States', 'global_code': '87G28897+H5'}",2.0,4.3,ChIJk9O5VtzcNIgRr_wUj3f6kGQ,GOOGLE,170.0,"8711 U.S. 30, Irwin",40.3189983,-79.68707839999998,POINT (-79.68707839999998 40.3189983),4
121,b526fdbbf05ecf319dc6394f94cf60f05b81e5c5,amf noble manor lanes,{'open_now': True},ChIJvaZFbl72NIgRrceegYrD_-0,"{'compound_code': 'CWHR+3M Pittsburgh, Pennsylvania, United States', 'global_code': '86GXCWHR+3M'}",2.0,4.1,ChIJvaZFbl72NIgRrceegYrD_-0,GOOGLE,247.0,"2440 Noblestown Road, Pittsburgh",40.4277126,-80.05827819999998,POINT (-80.05827819999998 40.4277126),4
122,a4a44093959f62059dd178f4ef7503a75ca954b5,duke's rib house & grille,{'open_now': True},ChIJQbxmb6T3NIgRKsbw7N1kui4,"{'compound_code': '9WVP+GJ Pittsburgh, Pennsylvania, United States', 'global_code': '86GX9WVP+GJ'}",2.0,4.2,ChIJQbxmb6T3NIgRKsbw7N1kui4,GOOGLE,238.0,"1910 Cochran Road, Pittsburgh",40.3938593,-80.06338219999998,POINT (-80.06338219999998 40.3938593),4
123,810e3b02531bdd6b40a15ad97dcc0ec99be82c1b,hormel foods,,ChIJTRTmsFv2NIgR56ConX9mTsg,"{'compound_code': 'CWCQ+VM Green Tree, Pennsylvania, United States', 'global_code': '86GXCWCQ+VM'}",2.0,0.0,ChIJTRTmsFv2NIgR56ConX9mTsg,GOOGLE,0.0,"651 Holiday Drive # 215, Pittsburgh",40.4221809,-80.06075419999998,POINT (-80.06075419999998 40.4221809),0
124,50fd6e48ca87fb58b84d818db535eb87c336cd48,il burloni,{'open_now': True},ChIJISOT3L_3NIgR6ZSiVZ1VfLY,"{'compound_code': '9WRH+5J Pittsburgh, Pennsylvania, United States', 'global_code': '86GX9WRH+5J'}",2.0,4.7,ChIJISOT3L_3NIgR6ZSiVZ1VfLY,GOOGLE,48.0,"2101 Greentree Road, Pittsburgh",40.3903858,-80.0708968,POINT (-80.0708968 40.3903858),5
125,45885f2e351de40ba75522e9f7ef591a27fe2627,subway restaurants,{'open_now': True},ChIJBZR0o1_2NIgRmZ3Gefvj3u8,"{'compound_code': 'CWGV+MR Pittsburgh, Pennsylvania, United States', 'global_code': '86GXCWGV+MR'}",1.0,3.1,ChIJBZR0o1_2NIgRmZ3Gefvj3u8,GOOGLE,23.0,"2351 Noblestown Road, Pittsburgh",40.42671989999999,-80.05539139999998,POINT (-80.05539139999998 40.42671989999999),3
126,19ff82d3df28ebbc15e9971a16a9a1dd8d11506f,subway restaurants,{'open_now': True},ChIJ4S_xjsT3NIgRSLxsFkygOCY,"{'compound_code': '9WW7+VV Carnegie, Pennsylvania, United States', 'global_code': '86GX9WW7+VV'}",1.0,4.4,ChIJ4S_xjsT3NIgRSLxsFkygOCY,GOOGLE,14.0,"1160 Washington Avenue, Carnegie",40.3971314,-80.0853352,POINT (-80.0853352 40.3971314),4
127,781cefd82447d00c506daf31523307c787735e19,cafe delhi and karma banquet/event center,{'open_now': True},ChIJlXjMDNL3NIgR4q7YfOl4WV8,"{'compound_code': 'CW57+73 Carnegie, Pennsylvania, United States', 'global_code': '86GXCW57+73'}",2.0,4.1,ChIJlXjMDNL3NIgR4q7YfOl4WV8,GOOGLE,539.0,"205 Mary Street, Carnegie",40.408159999999995,-80.087317,POINT (-80.087317 40.40816),4
128,d8db0c8fa68c0a3d8bf3407f46c60719764a9eaf,subway restaurants,{'open_now': True},ChIJfbPUDQX3NIgRbfG78aldo9c,"{'compound_code': '9XX4+PF Pittsburgh, Pennsylvania, United States', 'global_code': '86GX9XX4+PF'}",1.0,4.1,ChIJfbPUDQX3NIgRbfG78aldo9c,GOOGLE,52.0,"3147 Banksville Road, Pittsburgh",40.3993065,-80.0438417,POINT (-80.0438417 40.3993065),4
129,16da61ff73589a96c1d4baeb1e5f8083c301eeed,foster's restaurant & catering,{'open_now': False},ChIJFdcDP1r2NIgR-NdiIUxgdo4,"{'compound_code': 'CWCQ+8V Pittsburgh, Pennsylvania, United States', 'global_code': '86GXCWCQ+8V'}",2.0,3.7,ChIJFdcDP1r2NIgR-NdiIUxgdo4,GOOGLE,15.0,"680 Andersen Drive # 10, Pittsburgh",40.4208564,-80.0603443,POINT (-80.0603443 40.4208564),4
130,5ee496d87bce8f116426be3470b39a3a335f9cdf,99 bottles,{'open_now': True},ChIJV-CCysX3NIgRxJ7yoL8XLaM,"{'compound_code': '9WX9+F3 Carnegie, Pennsylvania, United States', 'global_code': '86GX9WX9+F3'}",1.0,4.3,ChIJV-CCysX3NIgRxJ7yoL8XLaM,GOOGLE,280.0,"1001 Washington Avenue, Carnegie",40.398749200000005,-80.0822965,POINT (-80.0822965 40.3987492),4
131,f10eb30df9c8e50f22467ccb03103ecd21c6eb4d,capriccio pizza and italian restaurant,{'open_now': True},ChIJo-MFH4UZVIgR3fxHxtmi0Ww,"{'compound_code': '78MJ+6H Charlotte, 1, Charlotte, NC, United States', 'global_code': '867X78MJ+6H'}",2.0,4.5,ChIJo-MFH4UZVIgR3fxHxtmi0Ww,GOOGLE,333.0,"9611 Brookdale Drive, Charlotte",35.28309960000001,-80.66850190000001,POINT (-80.66850190000001 35.28309960000001),4
132,801be5c27828b50ba40bf83c31e1ec4143f25e24,best china restaurant,{'open_now': True},ChIJBxlB54QZVIgRT1qX44foUXI,"{'compound_code': '78MJ+6R Harrisburg, 1, Harrisburg, NC, United States', 'global_code': '867X78MJ+6R'}",2.0,3.7,ChIJBxlB54QZVIgRT1qX44foUXI,GOOGLE,124.0,"9601 Brookdale Drive, Charlotte",35.28309960000001,-80.66797659999999,POINT (-80.66797659999999 35.28309960000001),4
133,19c2c6b5bc6206ed427f54cedd1728e58020c676,southern smoke catering,,ChIJ2bcqkYQZVIgRs-invpPSYUc,"{'compound_code': '78MG+9W Charlotte, 1, Charlotte, NC, United States', 'global_code': '867X78MG+9W'}",2.0,0.0,ChIJ2bcqkYQZVIgRs-invpPSYUc,GOOGLE,0.0,"13534 Plaza Road Extension, Charlotte",35.2834555,-80.67274739999998,POINT (-80.67274739999998 35.2834555),0
134,4fbf4c667f47f3ea595da30d3da79cca17e6c298,sushi ko,{'open_now': True},ChIJpybabuXqyIAR3UvLlcIgkk4,"{'compound_code': '6QR2+26 Las Vegas, Nevada, United States', 'global_code': '85866QR2+26'}",2.0,4.3,ChIJpybabuXqyIAR3UvLlcIgkk4,GOOGLE,265.0,"7101 West Craig Road # 104, Las Vegas",36.240018299999996,-115.24944620000001,POINT (-115.2494462 36.2400183),4
135,282ae41bd0da3bc80fb529a35a1628de5ccc17bb,subway restaurants,{'open_now': True},ChIJKWeqqYfqyIARNmm0XhLTGXs,"{'compound_code': '6Q95+4Q Las Vegas, Nevada, United States', 'global_code': '85866Q95+4Q'}",1.0,3.6,ChIJKWeqqYfqyIARNmm0XhLTGXs,GOOGLE,55.0,"6621 West Cheyenne Avenue, Las Vegas",36.21780760000001,-115.24057379999999,POINT (-115.2405738 36.21780760000001),4
136,4263301432812a61a6a509b0d12b5f7d480ca724,big dog's brewing company,{'open_now': True},ChIJERhc5lfqyIARwtAqbbIEbB8,"{'compound_code': '6QR7+WM Las Vegas, Nevada, United States', 'global_code': '85866QR7+WM'}",2.0,4.4,ChIJERhc5lfqyIARwtAqbbIEbB8,GOOGLE,1439.0,"4543 North Rancho Drive, Las Vegas",36.242335,-115.23577399999999,POINT (-115.235774 36.242335),4
137,5a1168983fc991c1346f2a0a81fb2ada8bb3864f,dunkin',{'open_now': True},ChIJjUUoq1zqyIARtyrvCjUb4VI,"{'compound_code': '6QQG+95 Las Vegas, Nevada, United States', 'global_code': '85866QQG+95'}",1.0,3.6,ChIJjUUoq1zqyIARtyrvCjUb4VI,GOOGLE,194.0,"5861 W, Nevada 573 Suite 101, Las Vegas",36.23848809999999,-115.22452959999998,POINT (-115.2245296 36.23848809999999),4
139,0455bd3dc70ee6237208e3c913fa335cb611194a,gyro time - cheyenne,{'open_now': True},ChIJeeRRtL3qyIARSI9R5RBQwcY,"{'compound_code': '6P9Q+F6 Las Vegas, Nevada, United States', 'global_code': '85866P9Q+F6'}",2.0,4.3,ChIJeeRRtL3qyIARSI9R5RBQwcY,GOOGLE,73.0,"7660 West Cheyenne Avenue, Las Vegas",36.21874819999999,-115.2618936,POINT (-115.2618936 36.21874819999999),4
140,c94f14bf7d3503ce812e5d99367232369d0a3499,rio secco golf club,{'open_now': False},ChIJYS0uIuzNyIARw4N2VZsALi8,"{'compound_code': 'XVGQ+9M Henderson, Nevada, United States', 'global_code': '8576XVGQ+9M'}",2.0,4.6,ChIJYS0uIuzNyIARw4N2VZsALi8,GOOGLE,50.0,"2851 Grand Hills Drive, Henderson",35.975912,-115.11085600000001,POINT (-115.110856 35.975912),5
141,341c791d936db412470b13fa03f23aebb68084a2,grimaldi's,{'open_now': True},ChIJ2WgwZz_OyIARruFKbL8he10,"{'compound_code': '2V8J+36 Las Vegas, Nevada, United States', 'global_code': '85862V8J+36'}",2.0,4.6,ChIJ2WgwZz_OyIARruFKbL8he10,GOOGLE,695.0,"9595 South Eastern Avenue #100, Las Vegas",36.01520480000001,-115.1194772,POINT (-115.1194772 36.01520480000001),5
142,974654a579f8f0760bc64aec0d5508143636dd0d,janelas,{'open_now': True},ChIJ4bEn8-zNyIARvjyomekGzqc,"{'compound_code': 'XVGQ+9M Las Vegas, Nevada, United States', 'global_code': '8576XVGQ+9M'}",2.0,4.0,ChIJ4bEn8-zNyIARvjyomekGzqc,GOOGLE,2.0,"2851 Grand Hills Drive, Henderson",35.9759485,-115.1107956,POINT (-115.1107956 35.9759485),4
143,d9c24d9ff679de9439b168cf704b092a17eb1885,crepe expectations,{'open_now': False},ChIJ6fbPvEDOyIARIaeQGYZFZfo,"{'compound_code': '2V8M+F4 Las Vegas, Nevada, United States', 'global_code': '85862V8M+F4'}",2.0,4.7,ChIJ6fbPvEDOyIARIaeQGYZFZfo,GOOGLE,709.0,"9500 South Eastern Avenue #180, Las Vegas",36.0161635,-115.11721740000002,POINT (-115.1172174 36.0161635),5
144,b4cc50a8ef01cfae512e633cf25aa1c355b052c1,augie's pizza & ribs,{'open_now': True},ChIJy8TBvwAQMYgRdSyHvDO9NT0,"{'compound_code': 'CMJ6+7F Chagrin Falls, Chagrin Falls Township, OH, United States', 'global_code': '86HWCMJ6+7F'}",2.0,4.6,ChIJy8TBvwAQMYgRdSyHvDO9NT0,GOOGLE,96.0,"5210 Chillicothe Road, Chagrin Falls",41.43063,-81.33882799999998,POINT (-81.33882799999998 41.43063),5
145,6c4383a9da607ac413b1443e751ad8e45396282b,chagrin valley athletic club,{'open_now': True},ChIJr60ATVoQMYgRv14ovKjGn_w,"{'compound_code': '9MXR+RM Chagrin Falls, Chagrin Falls Township, OH, United States', 'global_code': '86HW9MXR+RM'}",2.0,3.9,ChIJr60ATVoQMYgRv14ovKjGn_w,GOOGLE,7.0,"17260 Snyder Road, Chagrin Falls",41.39954900000001,-81.308273,POINT (-81.308273 41.39954900000001),4
146,73be4ce2e3fa84b3e552082fe1550ba63ec53c17,dunkin',{'open_now': True},ChIJ1zlJlnUQMYgR1c4nExamc6I,"{'compound_code': 'CM66+FG Bainbridge, Bainbridge Township, OH, United States', 'global_code': '86HWCM66+FG'}",1.0,3.7,ChIJ1zlJlnUQMYgR1c4nExamc6I,GOOGLE,118.0,"16870 Chillicothe Road, Bainbridge",41.4111976,-81.33867169999998,POINT (-81.33867169999998 41.4111976),4
147,4c9f002a36635349b70aaf741911995449d6a284,aladdin's eatery bainbridge,{'open_now': True},ChIJNyxI6QoQMYgRrRbMrBNJhz0,"{'compound_code': 'CM77+83 Chagrin Falls, Chagrin Falls Township, OH, United States', 'global_code': '86HWCM77+83'}",2.0,4.6,ChIJNyxI6QoQMYgRrRbMrBNJhz0,GOOGLE,198.0,"16725 Chillicothe Road, Chagrin Falls",41.41336810000001,-81.33725009999998,POINT (-81.33725009999998 41.41336810000001),5
148,d864fb1fa9c06e8565db2be39a411d6e666605e6,cleveland pizza co,{'open_now': True},ChIJG1ENUp8aMYgRO5Ip7is6H90,"{'compound_code': 'CM73+PW Chagrin Falls, Chagrin Falls Township, OH, United States', 'global_code': '86HWCM73+PW'}",2.0,3.8,ChIJG1ENUp8aMYgRO5Ip7is6H90,GOOGLE,51.0,"8311 East Washington Street, Chagrin Falls",41.4143544,-81.3452484,POINT (-81.3452484 41.4143544),4
150,29063ff50734381059b365dc9915646882fcc7c3,gionino's pizzeria #1 best pizza & chicken in town,{'open_now': True},ChIJ2YiGR3QQMYgRvtAVSoholPM,"{'compound_code': 'CM67+C4 Chagrin Falls, Chagrin Falls Township, OH, United States', 'global_code': '86HWCM67+C4'}",2.0,4.5,ChIJ2YiGR3QQMYgRvtAVSoholPM,GOOGLE,50.0,"8549 East Washington Street, Chagrin Falls",41.4110006,-81.3372418,POINT (-81.3372418 41.4110006),4
151,59d2a25f20fe3d92d2399af8d8eb4c307658a745,crumb & spigot tavern,{'open_now': True},ChIJJUYrEXUQMYgRo1r-NgP8WWI,"{'compound_code': 'CM77+23 Chagrin Falls, Chagrin Falls Township, OH, United States', 'global_code': '86HWCM77+23'}",2.0,4.5,ChIJJUYrEXUQMYgRo1r-NgP8WWI,GOOGLE,158.0,"16783 Chillicothe Road, Chagrin Falls",41.412592700000005,-81.33734609999998,POINT (-81.33734609999998 41.4125927),4
152,1f2e524a2592f3e95a64d4539366ff2385ad3496,empress court chinese restaurant,{'open_now': True},ChIJ4XoSVJ8aMYgRWzI__2a167g,"{'compound_code': 'CM73+QV Bainbridge, Bainbridge Township, OH, United States', 'global_code': '86HWCM73+QV'}",2.0,4.2,ChIJ4XoSVJ8aMYgRWzI__2a167g,GOOGLE,103.0,"8307 East Washington Street, Chagrin Falls",41.414399700000004,-81.34533429999998,POINT (-81.34533429999998 41.4143997),4
153,1d509cf08b41db629d13d48e5794eaaa711362d0,flatiron kitchen + taphouse,{'open_now': True},ChIJ8achGzSqVogRSnDJlprHmVU,"{'compound_code': 'F5X2+38 Davidson, 9, Deweese, NC, United States', 'global_code': '867XF5X2+38'}",2.0,4.2,ChIJ8achGzSqVogRSnDJlprHmVU,GOOGLE,265.0,"215 South Main Street, Davidson",35.497734,-80.849193,POINT (-80.849193 35.497734),4
154,1451378f65fb3f1e27308d018d7931cc9e25e9b3,ben & jerry’s,{'open_now': True},ChIJZ1LmITSqVogRGiDEyAKlgMc,"{'compound_code': 'F5X2+68 Davidson, 9, Deweese, NC, United States', 'global_code': '867XF5X2+68'}",2.0,4.0,ChIJZ1LmITSqVogRGiDEyAKlgMc,GOOGLE,48.0,"202 South Main Street, Davidson",35.49810370000001,-80.84915440000002,POINT (-80.84915440000002 35.49810370000001),4
155,88dfc1798c93dd17c7d9cd946895970eff9a7d2f,el paraiso restaurant,{'open_now': True},ChIJDQRlXNKrVogR2DqlvQfrHEA,"{'compound_code': 'F4QR+RW Cornelius, 10, Lemley, NC, United States', 'global_code': '867XF4QR+RW'}",2.0,4.4,ChIJDQRlXNKrVogR2DqlvQfrHEA,GOOGLE,166.0,"20700 North Main Street #124, Cornelius",35.489525,-80.85765099999998,POINT (-80.85765099999998 35.489525),4
156,331a5fa688053bac9205846835f5a121b54bbff3,soda shop,{'open_now': True},ChIJfbc_gjaqVogRAOQpCLXTyA0,"{'compound_code': 'F5X2+HF Davidson, 9, Deweese, NC, United States', 'global_code': '867XF5X2+HF'}",1.0,4.2,ChIJfbc_gjaqVogRAOQpCLXTyA0,GOOGLE,146.0,"104 South Main Street, Davidson",35.49899370000001,-80.8488647,POINT (-80.84886469999999 35.49899370000001),4
157,75a8fa50336e577f715f9c246704244ee3c0c63d,char-grill davidson,{'open_now': True},ChIJs6DqlMmrVogR-Q3wRbO4EEQ,"{'compound_code': 'G42Q+PH Davidson, 9, Deweese, NC, United States', 'global_code': '867XG42Q+PH'}",1.0,4.1,ChIJs6DqlMmrVogR-Q3wRbO4EEQ,GOOGLE,210.0,"624 Jetton Street, Davidson",35.5018603,-80.86111819999998,POINT (-80.86111819999998 35.5018603),4
158,955cc7b268b310ca25ab932af6baab4eda49ecb9,whitey's booze n' burgers,{'open_now': True},ChIJBw23mWbcMIgROxCtKgGe8lc,"{'compound_code': '69M6+88 Richfield, Richfield Township, OH, United States', 'global_code': '86HW69M6+88'}",2.0,4.5,ChIJBw23mWbcMIgROxCtKgGe8lc,GOOGLE,734.0,"3600 Brecksville Road, Richfield",41.2332751,-81.63922579999998,POINT (-81.63922579999998 41.2332751),4
159,11f7952ea38985c9b5a3b5f3cafe2658f70f1233,subway restaurants,{'open_now': True},ChIJ6WxhMnjcMIgR9Iwb_PHxkyI,"{'compound_code': '6997+R3 Richfield, Richfield Township, OH, United States', 'global_code': '86HW6997+R3'}",1.0,4.0,ChIJ6WxhMnjcMIgR9Iwb_PHxkyI,GOOGLE,28.0,"4174 Wheatley Road #700, Richfield",41.21957459999999,-81.63726059999998,POINT (-81.63726059999998 41.21957459999999),4
161,86e22762430428a16d6246e45ebee8d25ec291d9,clearview inn restaurant & pub,{'open_now': True},ChIJsbZEM73bMIgRsN8JsLhRts8,"{'compound_code': '6926+RJ Akron, Ohio, United States', 'global_code': '86HW6926+RJ'}",2.0,4.2,ChIJsbZEM73bMIgRsN8JsLhRts8,GOOGLE,58.0,"2446 North Cleveland Massillon Road, Akron",41.20201470000001,-81.6383956,POINT (-81.6383956 41.20201470000001),4
162,dedb72fb9b99a3fd8e03e689c3fa939dfc31cb94,z's,{'open_now': False},ChIJzdLTRoPbMIgR_vkxTyKfJUk,"{'compound_code': '6996+7W Richfield, Richfield Township, OH, United States', 'global_code': '86HW6996+7W'}",1.0,4.6,ChIJzdLTRoPbMIgR_vkxTyKfJUk,GOOGLE,39.0,"3031 Brecksville Road A, Richfield",41.218132700000005,-81.6376757,POINT (-81.6376757 41.21813270000001),5
163,e5c842a47ca2a8c211b18276ac88207e5f5435ff,"pierogies of cleveland , market & cafe - richfield",{'open_now': False},ChIJk7cE1FzcMIgRZw0uATFMfkM,"{'compound_code': '69R7+38 Richfield, Richfield Township, OH, United States', 'global_code': '86HW69R7+38'}",2.0,4.6,ChIJk7cE1FzcMIgRZw0uATFMfkM,GOOGLE,68.0,"4131 West Streetsboro Road, Richfield",41.240181,-81.636703,POINT (-81.636703 41.240181),5
165,9addf81e5d8cfee7e2edf6899fe954fcd6d46efe,wild mango restaurant and bar,{'open_now': True},ChIJhyBkngyTMIgRFzVh5BICWHY,"{'compound_code': 'C38W+X6 North Olmsted, Olmsted Township, OH, United States', 'global_code': '86HWC38W+X6'}",2.0,4.3,ChIJhyBkngyTMIgRFzVh5BICWHY,GOOGLE,322.0,"362 Great Northern Mall, North Olmsted",41.417415000000005,-81.90449509999998,POINT (-81.90449509999998 41.41741500000001),4
166,6a0e82db8ebad133d26c9829d5c750675057f12f,roberts resorts - el mirage golf and bar & grill,{'open_now': False},ChIJmdOfjO1DK4cRxoyhREZW6uo,"{'compound_code': 'HMVJ+JF El Mirage, Arizona, United States', 'global_code': '8559HMVJ+JF'}",2.0,4.2,ChIJmdOfjO1DK4cRxoyhREZW6uo,GOOGLE,138.0,"11201 North El Mirage Road, El Mirage",33.594011,-112.318873,POINT (-112.318873 33.594011),4
167,60f110c6e4e67c4fd7c73522a1f6dc3cb69ae2a2,shell,{'open_now': True},ChIJZUGrfY5DK4cRYG_NRaqqE-M,"{'compound_code': 'HMVF+HW El Mirage, Arizona, United States', 'global_code': '8559HMVF+HW'}",2.0,2.9,ChIJZUGrfY5DK4cRYG_NRaqqE-M,GOOGLE,81.0,"12170 North El Mirage Road, El Mirage",33.5939229,-112.325245,POINT (-112.325245 33.5939229),3
168,0916b5d6b29406fbc7bd0836665b2485f61c8933,subway restaurants,{'open_now': True},ChIJAQAAhI5DK4cRT4yy0yvozJo,"{'compound_code': 'HMVF+FQ El Mirage, Arizona, United States', 'global_code': '8559HMVF+FQ'}",1.0,4.2,ChIJAQAAhI5DK4cRT4yy0yvozJo,GOOGLE,40.0,"12170 North El Mirage Road, El Mirage",33.5936376,-112.32552749999999,POINT (-112.3255275 33.5936376),4
169,0dc7f3eb15f38495a9762f4c4f4fa0ef4c85334a,papa murphy's take 'n' bake pizza,{'open_now': True},ChIJsR7NmLNDK4cR0C9oYMXcBOE,"{'compound_code': 'JP26+9R Sun City, Arizona, United States', 'global_code': '8559JP26+9R'}",1.0,4.4,ChIJsR7NmLNDK4cR0C9oYMXcBOE,GOOGLE,134.0,"10659 Grand Avenue a12, Sun City",33.600905600000004,-112.28789669999999,POINT (-112.2878967 33.6009056),4
170,bf4374581fbe6c98c9ad3aba82f437ef0e09310b,blue hound kitchen & cocktails,{'open_now': True},ChIJmxfxryESK4cRgn7Xbv3NaFk,"{'compound_code': 'CWWG+XG Phoenix, Arizona, United States', 'global_code': '8559CWWG+XG'}",2.0,4.3,ChIJmxfxryESK4cRgn7Xbv3NaFk,GOOGLE,460.0,"2 East Jefferson Street, Phoenix",33.4474998,-112.07365549999999,POINT (-112.0736555 33.4474998),4
171,3b9af6e4b1681cd447a8eb5585ff514d4467d15b,breakfast club,{'open_now': False},ChIJXTk-uiESK4cRf2yW8nQ2hiM,"{'compound_code': 'CWWG+XG Phoenix, Arizona, United States', 'global_code': '8559CWWG+XG'}",2.0,4.5,ChIJXTk-uiESK4cRf2yW8nQ2hiM,GOOGLE,641.0,"2 East Jefferson Street #22-213, Phoenix",33.44746070000001,-112.0736676,POINT (-112.0736676 33.44746070000001),4
172,1fa127f6a60ef1ddf6e235265eb5e73619c11fe2,"tilted kilt pub and eatery phoenix, az",{'open_now': True},ChIJh7rSOSESK4cRdhWxGKWlGXo,"{'compound_code': 'CWWG+XV Phoenix, Arizona, United States', 'global_code': '8559CWWG+XV'}",2.0,4.0,ChIJh7rSOSESK4cRdhWxGKWlGXo,GOOGLE,578.0,"2 East Jefferson Street #22-217, Phoenix",33.4474565,-112.0728082,POINT (-112.0728082 33.4474565),4
173,5445c6662da5b1b71dd7b6bab6dcd453cf4abc89,squid ink sushi bar - cityscape,{'open_now': True},ChIJXTk-uiESK4cRnXxz9uDq_DU,"{'compound_code': 'CWWG+XG Phoenix, Arizona, United States', 'global_code': '8559CWWG+XG'}",2.0,4.1,ChIJXTk-uiESK4cRnXxz9uDq_DU,GOOGLE,479.0,"2 East Jefferson Street, Phoenix",33.44746070000001,-112.0736676,POINT (-112.0736676 33.44746070000001),4
174,6472b8fc8213cebac63c82dcf4c2a9ba9a583348,pita jungle - downtown phoenix,{'open_now': True},ChIJ6QLO-DsSK4cROGn4I_KMdd0,"{'compound_code': 'FW5C+GW Phoenix, Arizona, United States', 'global_code': '8559FW5C+GW'}",2.0,4.3,ChIJ6QLO-DsSK4cROGn4I_KMdd0,GOOGLE,682.0,"1001 North 3rd Avenue #4, Phoenix",33.4588385,-112.07764180000001,POINT (-112.0776418 33.4588385),4
175,8195bc2dffbb5e10828ae9a9091af2e16fe7fa1a,aventura - metro marche,{'open_now': False},ChIJD3rTNx8SK4cRJQxzKfNPf40,"{'compound_code': 'FW2H+3M Phoenix, Arizona, United States', 'global_code': '8559FW2H+3M'}",2.0,3.3,ChIJD3rTNx8SK4cRJQxzKfNPf40,GOOGLE,3.0,"100 North 3rd Street, Phoenix",33.4502331,-112.0707808,POINT (-112.0707808 33.4502331),3
176,2bcba2358bbd5422286c33eda9e1f636dd801213,3 lakes golf course,{'open_now': True},ChIJXcZGgRLrNIgR9ykO2jeOEMk,"{'compound_code': 'F5HV+4X Pittsburgh, Pennsylvania, United States', 'global_code': '87G2F5HV+4X'}",2.0,3.3,ChIJXcZGgRLrNIgR9ykO2jeOEMk,GOOGLE,23.0,"6700 Saltsburg Road, Pittsburgh",40.477851,-79.80505099999998,POINT (-79.80505099999998 40.477851),3
177,45096a2ce63ec19c8ca9d8851431c1b3f7aedf0f,subway restaurants,{'open_now': True},ChIJl7KAIIHrNIgRvY5mmLfm4cE,"{'compound_code': 'F57F+X8 Pittsburgh, Pennsylvania, United States', 'global_code': '87G2F57F+X8'}",1.0,3.5,ChIJl7KAIIHrNIgRvY5mmLfm4cE,GOOGLE,37.0,"Shopping Center, 11667 Penn Hills Dr Storeroom #12 Penn Hills, Pittsburgh",40.46496860000001,-79.8267,POINT (-79.8267 40.46496860000001),3
178,5d40c3b8004346dad06516ebaa4333282b3ff156,tommy's catering,,ChIJd0ppgxLrNIgRAmpO4-NtU-Y,"{'compound_code': 'F5HV+4X Penn Hills, Penn Hills Township, PA, United States', 'global_code': '87G2F5HV+4X'}",2.0,0.0,ChIJd0ppgxLrNIgRAmpO4-NtU-Y,GOOGLE,0.0,"6700 Saltsburg Road, Penn Hills",40.477851,-79.80505099999998,POINT (-79.80505099999998 40.477851),0
179,41c46dcce46b5ff0c1beccda8e880385a94a3e09,subway restaurants,{'open_now': True},ChIJIdbgcB3rNIgRMUgpPS0WyrE,"{'compound_code': 'F6H7+7J Pittsburgh, Pennsylvania, United States', 'global_code': '87G2F6H7+7J'}",1.0,3.4,ChIJIdbgcB3rNIgRMUgpPS0WyrE,GOOGLE,28.0,"7343 Saltsburg Road A, Pittsburgh",40.47813519999999,-79.78588959999998,POINT (-79.78588959999998 40.47813519999999),3
180,925b376b14200dfab5f802b785c991ba705919f0,dunkin',{'open_now': True},ChIJHxDKTo_rNIgRI4SGyZkU-mU,"{'compound_code': 'F55G+7F Penn Hills, Penn Hills Township, PA, United States', 'global_code': '87G2F55G+7F'}",1.0,3.8,ChIJHxDKTo_rNIgRI4SGyZkU-mU,GOOGLE,320.0,"344 Rodi Road, Penn Hills",40.45823499999999,-79.8237638,POINT (-79.82376379999999 40.45823499999999),4
181,51544e18e08be5aeff67df6ff3dd612bdbce4fd8,rita's italian ice & frozen custard,{'open_now': True},ChIJt2kCq3jrNIgRICQJmC7hvH8,"{'compound_code': 'F59G+PC Penn Hills, Penn Hills Township, PA, United States', 'global_code': '87G2F59G+PC'}",1.0,4.4,ChIJt2kCq3jrNIgRICQJmC7hvH8,GOOGLE,156.0,"11833 Frankstown Road, Penn Hills",40.4693703,-79.82397490000001,POINT (-79.82397490000001 40.4693703),4
182,14092d8a7f2b35f0b75932556878eec6eb4632fc,pasqualino's italian restaurant,{'open_now': True},ChIJVTx06mXrNIgR4JR8VsBvuIE,"{'compound_code': 'F5MJ+24 Penn Hills, Penn Hills Township, PA, United States', 'global_code': '87G2F5MJ+24'}",2.0,4.6,ChIJVTx06mXrNIgR4JR8VsBvuIE,GOOGLE,357.0,"13032 Frankstown Road, Penn Hills",40.4825838,-79.8197353,POINT (-79.8197353 40.4825838),5
184,c77e981ba5575a90109046e77609cf5116a0cf56,frankstown wood-fired pizza,{'open_now': True},ChIJCXSf8GTrNIgRuJIreQZWUoI,"{'compound_code': 'F5JH+G5 Penn Hills, Penn Hills Township, PA, United States', 'global_code': '87G2F5JH+G5'}",1.0,4.8,ChIJCXSf8GTrNIgRuJIreQZWUoI,GOOGLE,79.0,"12911 Frankstown Road, Penn Hills",40.4813435,-79.8220583,POINT (-79.82205829999999 40.4813435),5
185,0281b4da40b959d78fbbf9ff47e1995230868e8f,white hawk cafe social club,{'open_now': True},ChIJCXcbZYHrNIgRncmXCnV2xzQ,"{'compound_code': 'F58F+CW Penn Hills, Penn Hills Township, PA, United States', 'global_code': '87G2F58F+CW'}",1.0,3.7,ChIJCXcbZYHrNIgRncmXCnV2xzQ,GOOGLE,26.0,"77 Universal Road, Pittsburgh",40.4660266,-79.8251916,POINT (-79.8251916 40.4660266),4
186,ba4ee1e41d6b5259eb28d7ec5fe22f0fb1965616,papa murphy's take 'n' bake pizza,{'open_now': True},ChIJPYoI7sW4yIARUtrqf3eYMm8,"{'compound_code': '4M2P+93 Las Vegas, Nevada, United States', 'global_code': '85864M2P+93'}",1.0,4.1,ChIJPYoI7sW4yIARUtrqf3eYMm8,GOOGLE,52.0,"10180 West Tropicana Avenue #133, Las Vegas",36.100900200000005,-115.3147856,POINT (-115.3147856 36.10090020000001),4
187,c93748248a6a2169fef710252e2353d85023cf8b,brooksy's,{'open_now': True},ChIJE-qUdK24yIARh6zeKheLTXg,"{'compound_code': '4P74+V5 Las Vegas, Nevada, United States', 'global_code': '85864P74+V5'}",2.0,4.2,ChIJE-qUdK24yIARh6zeKheLTXg,GOOGLE,92.0,"9295 West Flamingo Road # 100, Las Vegas",36.114665,-115.29460390000001,POINT (-115.2946039 36.114665),4
188,92faec64602f62e4bcf84021f5d3a9d9ed2eedce,yorky's,{'open_now': True},ChIJ_-SIFpe4yIARk2XOmtbg100,"{'compound_code': '3PR2+QM Las Vegas, Nevada, United States', 'global_code': '85863PR2+QM'}",1.0,4.2,ChIJ_-SIFpe4yIARk2XOmtbg100,GOOGLE,65.0,"5325 South Fort Apache Road, Las Vegas",36.0919917,-115.29829720000001,POINT (-115.2982972 36.0919917),4
189,d727dbf5fe2bf6c98379f08313475f83a9020a81,hideaway,{'open_now': True},ChIJI1NDCJZ-K4cR8f3Pl63BJLk,"{'compound_code': 'R3J8+W5 Cave Creek, Arizona, United States', 'global_code': '855CR3J8+W5'}",2.0,4.6,ChIJI1NDCJZ-K4cR8f3Pl63BJLk,GOOGLE,527.0,"6746 East Cave Creek Road, Cave Creek",33.832337,-111.93458000000001,POINT (-111.93458 33.832337),5
190,ea561577b147a702a8fd2679fb61672fbfef5b52,lariat grill,{'open_now': True},ChIJ74cR6tZ-K4cR334iuQiujJk,"{'compound_code': 'R3CR+RC Carefree, Arizona, United States', 'global_code': '855CR3CR+RC'}",2.0,4.0,ChIJ74cR6tZ-K4cR334iuQiujJk,GOOGLE,2.0,"37220 Mule Train Road, Carefree",33.822031,-111.90897,POINT (-111.90897 33.822031),4
191,1dd4d4afac27ea5db6c3aec802b71a07fe9b3326,buffalo chip saloon and steakhouse,{'open_now': True},ChIJRWhzAZZ-K4cRb8-1PwcqhtQ,"{'compound_code': 'R3J8+77 Cave Creek, Arizona, United States', 'global_code': '855CR3J8+77'}",2.0,4.4,ChIJRWhzAZZ-K4cRb8-1PwcqhtQ,GOOGLE,1405.0,"6823 East Cave Creek Road, Cave Creek",33.83071939999999,-111.9342644,POINT (-111.9342644 33.83071939999999),4
192,c7bdaaa1b248336d43be211481db2c7a42886d2c,harold's cave creek corral,{'open_now': True},ChIJexfdar5-K4cRmNvJiJkzXx0,"{'compound_code': 'R3J8+3R Cave Creek, Arizona, United States', 'global_code': '855CR3J8+3R'}",2.0,4.3,ChIJexfdar5-K4cRmNvJiJkzXx0,GOOGLE,1228.0,"6895 East Cave Creek Road, Cave Creek",33.8301646,-111.93289820000001,POINT (-111.9328982 33.8301646),4
193,8fda7ee6b3d3797381041477908d9ec05a667986,the grill at the boulders,{'open_now': True},ChIJXTPt8cZ-K4cR1dINg3eXSX0,"{'compound_code': 'R32M+Q5 Scottsdale, Arizona, United States', 'global_code': '855CR32M+Q5'}",2.0,3.9,ChIJXTPt8cZ-K4cR1dINg3eXSX0,GOOGLE,49.0,"34631 North Tom Darlington Drive, Carefree",33.80199520000001,-111.9171144,POINT (-111.9171144 33.80199520000001),4
194,8d15b69c32c1e590f77b67535946d8436af9cfe4,the spotted donkey cantina,{'open_now': True},ChIJj_6e8Th5K4cRGpeVzTe6c9g,"{'compound_code': 'Q3XF+5C Scottsdale, Arizona, United States', 'global_code': '855CQ3XF+5C'}",2.0,4.3,ChIJj_6e8Th5K4cRGpeVzTe6c9g,GOOGLE,258.0,"34505 North Scottsdale Road, Scottsdale",33.797963200000005,-111.92647959999998,POINT (-111.9264796 33.79796320000001),4
195,8338fce4d0e74fd6f2eea77e95e688a6e64833f6,first watch - carefree,{'open_now': False},ChIJxUlJvTh5K4cRUsdn2Hz8srs,"{'compound_code': 'Q3XC+48 Scottsdale, Arizona, United States', 'global_code': '855CQ3XC+48'}",2.0,4.4,ChIJxUlJvTh5K4cRUsdn2Hz8srs,GOOGLE,184.0,"34422 North Scottsdale Road Ste. 110, Scottsdale",33.797843,-111.92918,POINT (-111.92918 33.797843),4
196,3a95f46494026ef01e9b68cf66998037dbcf96f3,english rose tearoom,{'open_now': True},ChIJsUZlaMZ-K4cR6AxcnxA47a4,"{'compound_code': 'R3FG+XF Carefree, Arizona, United States', 'global_code': '855CR3FG+XF'}",2.0,4.7,ChIJsUZlaMZ-K4cR6AxcnxA47a4,GOOGLE,384.0,"201 Easy Street Ste 103, Carefree",33.82497,-111.92384399999999,POINT (-111.923844 33.82497),5
197,73f88e06d40b48202fd12036a345c14d5ac3b7f2,black mountain coffee shop & cafe,{'open_now': False},ChIJbRVM8cZ-K4cR2FouWkvh-vo,"{'compound_code': 'R3GG+5J Carefree, Arizona, United States', 'global_code': '855CR3GG+5J'}",1.0,4.4,ChIJbRVM8cZ-K4cR2FouWkvh-vo,GOOGLE,151.0,"7211 East Ho Road 22 & 23, Carefree",33.82543,-111.923475,POINT (-111.923475 33.82543),4
198,9ad38dc514cb944b699132695eed5e85e72a82dc,venues cafe,{'open_now': True},ChIJGevTecZ-K4cRD9AXt-oIpEI,"{'compound_code': 'R3GG+3W Carefree, Arizona, United States', 'global_code': '855CR3GG+3W'}",2.0,4.1,ChIJGevTecZ-K4cRD9AXt-oIpEI,GOOGLE,175.0,"34 Easy Street, Carefree",33.825219,-111.92264399999999,POINT (-111.922644 33.825219),4
199,95f2a11638d75ef3012e4b35bc78ce6660cad335,amf carolina lanes,{'open_now': True},ChIJzcQuQgskVIgRFu8-kUCrNMM,"{'compound_code': '478X+JP Matthews, 13, Morning Star, NC, United States', 'global_code': '867X478X+JP'}",2.0,4.1,ChIJzcQuQgskVIgRFu8-kUCrNMM,GOOGLE,654.0,"11210 Brigman Road, Matthews",35.116613,-80.700659,POINT (-80.700659 35.116613),4
200,13d2a0057fe72cf9d3f39afebbb77647f64e8ba8,tropical bakery,{'open_now': False},ChIJka8O01IhVIgR-4LHLtimBX4,"{'compound_code': '47FC+83 Matthews, 13, Morning Star, NC, United States', 'global_code': '867X47FC+83'}",2.0,4.2,ChIJka8O01IhVIgR-4LHLtimBX4,GOOGLE,121.0,"11100 Monroe Road E, Matthews",35.123282200000006,-80.7298229,POINT (-80.7298229 35.12328220000001),4
201,1798fdbc5fece021b3bb529a8f790984743088e1,econo lodge inn & suites matthews - charlotte,{'open_now': True},ChIJ0UEcQHUkVIgR9ENxaOPRKs8,"{'compound_code': '4884+W5 Matthews, 13, Morning Star, NC, United States', 'global_code': '867X4884+W5'}",2.0,2.9,ChIJ0UEcQHUkVIgR9ENxaOPRKs8,GOOGLE,92.0,"1938 Moore Road, Matthews",35.11736399999999,-80.694581,POINT (-80.694581 35.11736399999999),3
202,9a61e2200dc2c6b26f29a81c4da9af3e7210c63e,stacks,{'open_now': False},ChIJka8O01IhVIgRYGNcodO-TQ4,"{'compound_code': '47FC+85 Matthews, 13, Morning Star, NC, United States', 'global_code': '867X47FC+85'}",1.0,4.6,ChIJka8O01IhVIgRYGNcodO-TQ4,GOOGLE,985.0,"Morning Star, 11100 Monroe Road, Matthews",35.123346999999995,-80.72962439999998,POINT (-80.72962439999998 35.123347),5
203,d2900e95bf099d5c921a3cb3929a70db36931871,rackem pub & billiards,{'open_now': True},ChIJ5d95ve8jVIgRN3aELFjOR1g,"{'compound_code': '47MR+MC Matthews, 13, Morning Star, NC, United States', 'global_code': '867X47MR+MC'}",2.0,4.5,ChIJ5d95ve8jVIgRN3aELFjOR1g,GOOGLE,187.0,"1898 Windsor Square Drive A, Matthews",35.134151,-80.708924,POINT (-80.708924 35.134151),4
204,b1440f4e4ec53149a486496d8bf61e33a6fdce63,ditka's pittsburgh,{'open_now': True},ChIJG7z2hzdZNIgRrivGLrhEAtQ,"{'compound_code': 'CRXP+9P Pittsburgh, Pennsylvania, United States', 'global_code': '86GXCRXP+9P'}",2.0,4.4,ChIJG7z2hzdZNIgRrivGLrhEAtQ,GOOGLE,710.0,"1 Robinson Plaza, Pittsburgh",40.448469,-80.163197,POINT (-80.163197 40.448469),4
205,ed5ed98d5d800e7ce1994809c1eb541637394857,sheetz #353,{'open_now': True},ChIJRfaymTBZNIgRI9-63K9qtng,"{'compound_code': 'CRXR+5W Pittsburgh, Pennsylvania, United States', 'global_code': '86GXCRXR+5W'}",1.0,3.4,ChIJRfaymTBZNIgRI9-63K9qtng,GOOGLE,53.0,"5410 Campbells Run Road, Pittsburgh",40.44799769999999,-80.1576329,POINT (-80.1576329 40.44799769999999),3
206,9b24a9633bbd261c971b1e3475920d38486772de,subway restaurants,{'open_now': True},ChIJN0m8WzdZNIgR2vHJ7od88e8,"{'compound_code': 'CRXQ+MR Pittsburgh, Pennsylvania, United States', 'global_code': '86GXCRXQ+MR'}",1.0,2.7,ChIJN0m8WzdZNIgR2vHJ7od88e8,GOOGLE,39.0,"6500 Steubenville Pike, Pittsburgh",40.449157899999996,-80.16047409999999,POINT (-80.16047409999999 40.4491579),3
207,723e59fb91c60123392b3bb1d5269deacb06a7d7,paninis grill,{'open_now': True},ChIJH7yZtS_BMIgROQfqtXXhCwM,"{'compound_code': '65QQ+42 Brunswick, Brunswick Hills Township, OH, United States', 'global_code': '86HW65QQ+42'}",2.0,4.1,ChIJH7yZtS_BMIgROQfqtXXhCwM,GOOGLE,593.0,"3520 Center Road, Brunswick",41.237779100000004,-81.8124148,POINT (-81.8124148 41.2377791),4
208,5b1b6b0443c41812960b2aad607fb03a65953436,fatbob pizza,{'open_now': True},ChIJufqHMjTHMIgRHlAP5jCrU70,"{'compound_code': '65G5+WJ Brunswick, Brunswick Hills Township, OH, United States', 'global_code': '86HW65G5+WJ'}",2.0,4.3,ChIJufqHMjTHMIgRHlAP5jCrU70,GOOGLE,157.0,"1739 Pearl Road, Brunswick",41.2273227,-81.84089300000001,POINT (-81.84089300000001 41.2273227),4
209,ddb5ae24c9a41a458b2d9d1c15b981bf929b1cbb,sidelines sports bar & grill,{'open_now': True},ChIJx3GGRsbAMIgRXY0GOlCKTCY,"{'compound_code': '65V5+GQ Brunswick, Brunswick Hills Township, OH, United States', 'global_code': '86HW65V5+GQ'}",1.0,4.2,ChIJx3GGRsbAMIgRXY0GOlCKTCY,GOOGLE,126.0,"1165 Pearl Road, Brunswick",41.2437522,-81.8405598,POINT (-81.84055979999999 41.2437522),4
210,0e407273ee3a87403c491e26fed52a25df3f4e08,the great american pizza company,{'open_now': True},ChIJcZdZ08bAMIgRxKwnWy5YOYA,"{'compound_code': '65W5+VP Brunswick, Brunswick Hills Township, OH, United States', 'global_code': '86HW65W5+VP'}",2.0,4.5,ChIJcZdZ08bAMIgRxKwnWy5YOYA,GOOGLE,87.0,"1035 Pearl Road, Brunswick",41.247221,-81.84071,POINT (-81.84071 41.247221),4
211,41e5277da013a3f392ccd194755f8719255e9c0c,cozumel restaurante & cantina,{'open_now': True},ChIJzTT_QezAMIgRTQ5aURlomr4,"{'compound_code': '7555+8Q Brunswick, Brunswick Hills Township, OH, United States', 'global_code': '86HW7555+8Q'}",2.0,4.6,ChIJzTT_QezAMIgRTQ5aURlomr4,GOOGLE,718.0,"625 Pearl Road, Brunswick",41.258356400000004,-81.84050350000003,POINT (-81.84050350000003 41.2583564),5
212,3211c7054447901218e861475391b14c7e377564,steak 'n shake,{'open_now': True},ChIJnY5uODfBMIgRo2cmaEhDFsI,"{'compound_code': '65QV+4J Brunswick, Brunswick Hills Township, OH, United States', 'global_code': '86HW65QV+4J'}",1.0,3.3,ChIJnY5uODfBMIgRo2cmaEhDFsI,GOOGLE,643.0,"3316 Center Road, Brunswick",41.2378015,-81.80599559999999,POINT (-81.80599559999999 41.2378015),3
213,8477d3fb810cb534e5aba4fb9836d7e9a283541d,georgio's oven fresh pizza co,{'open_now': True},ChIJlZ2jcDrBMIgRFWOdB1FaWk4,"{'compound_code': '65QV+R2 Brunswick, Brunswick Hills Township, OH, United States', 'global_code': '86HW65QV+R2'}",1.0,4.0,ChIJlZ2jcDrBMIgRFWOdB1FaWk4,GOOGLE,41.0,"1329 North Carpenter Road, Brunswick",41.239599600000005,-81.8074498,POINT (-81.8074498 41.23959960000001),4
215,642ff328795faeffb623cdf0dc7f6ddaa021bbce,charleston's restaurant,{'open_now': True},ChIJIQkZejkEK4cRj7CKcG2QvQs,"{'compound_code': '82CH+GQ Chandler, Arizona, United States', 'global_code': '855C82CH+GQ'}",2.0,4.5,ChIJIQkZejkEK4cRj7CKcG2QvQs,GOOGLE,663.0,"1040 North 54th Street, Chandler",33.321284000000006,-111.97059180000001,POINT (-111.9705918 33.32128400000001),4
216,2dcd6ae91ab67f30961392add1d94e521a9d9b51,fleming’s prime steakhouse & wine bar,{'open_now': False},ChIJj48vaDwEK4cRJQPzfv20tFg,"{'compound_code': '829J+CQ Chandler, Arizona, United States', 'global_code': '855C829J+CQ'}",4.0,4.4,ChIJj48vaDwEK4cRJQPzfv20tFg,GOOGLE,476.0,"905 North 54th Street, Chandler",33.3185159,-111.9680386,POINT (-111.9680386 33.3185159),4
217,2080941a60c3bcaa46db5c291066bff230ef2a45,sandbar mexican grill - chandler,{'open_now': True},ChIJU54DZTsEK4cRZDO6U_-mxsg,"{'compound_code': '82CM+6F Chandler, Arizona, United States', 'global_code': '855C82CM+6F'}",2.0,4.1,ChIJU54DZTsEK4cRZDO6U_-mxsg,GOOGLE,1404.0,"7200 West Ray Road, Chandler",33.3206091,-111.9663267,POINT (-111.9663267 33.3206091),4
218,857b3010b548cf7d29a050a78dfd7c50c1f9c88c,einstein bros. bagels,{'open_now': False},ChIJF3A370YEK4cRl_vrxfEoeOI,"{'compound_code': '829C+H2 Phoenix, Arizona, United States', 'global_code': '855C829C+H2'}",1.0,4.1,ChIJF3A370YEK4cRl_vrxfEoeOI,GOOGLE,146.0,"4803 East Ray Road Ste 102, Phoenix",33.3188988,-111.97999750000001,POINT (-111.9799975 33.3188988),4
219,ecfa15d3e730314bbedfda67387fd29b2b3c5363,va bene,{'open_now': True},ChIJ_bGVLm8EK4cRsC588iU9WkU,"{'compound_code': '8239+HM Phoenix, Arizona, United States', 'global_code': '855C8239+HM'}",2.0,4.4,ChIJ_bGVLm8EK4cRsC588iU9WkU,GOOGLE,551.0,"4647 East Chandler Boulevard, Phoenix",33.303877,-111.98087179999999,POINT (-111.9808718 33.303877),4
220,3023c635c8dfcefeb93c08274e47b019edf8bfe2,jamba juice ahwatukee,{'open_now': True},ChIJ-yidg1AEK4cRebkUOuZwlG0,"{'compound_code': '82C5+8C Phoenix, Arizona, United States', 'global_code': '855C82C5+8C'}",1.0,4.5,ChIJ-yidg1AEK4cRebkUOuZwlG0,GOOGLE,125.0,"4706, 4302 East Ray Road, Phoenix",33.3207998,-111.99145459999998,POINT (-111.9914546 33.3207998),4
221,983751e51cb2cba2f3f67e6c6e11b2d25fcf9f13,subway restaurants,{'open_now': True},ChIJPyNBrGfbyIARuFE9OK87Zg4,"{'compound_code': '5W5J+FX Las Vegas, Nevada, United States', 'global_code': '85865W5J+FX'}",1.0,4.0,ChIJPyNBrGfbyIARuFE9OK87Zg4,GOOGLE,87.0,"4915 East Charleston Boulevard, Las Vegas",36.15873179999999,-115.067543,POINT (-115.067543 36.15873179999999),4
222,676b28b5ca3bbe7c5a9b63305877a370ec11e31a,subway restaurants,{'open_now': True},ChIJEc4_iRPbyIAR3nlZCOMk_I8,"{'compound_code': '4WVP+H9 Las Vegas, Nevada, United States', 'global_code': '85864WVP+H9'}",1.0,3.9,ChIJEc4_iRPbyIAR3nlZCOMk_I8,GOOGLE,50.0,"5061 East Sahara Avenue, Las Vegas",36.143897700000004,-115.0641217,POINT (-115.0641217 36.1438977),4
223,ac55aa9970b87a3fb58b3ee70e3cca4ebed84914,grab 'n go pizza express,{'open_now': True},ChIJuTfWGJrcyIARfhjYqVaxQg4,"{'compound_code': '5WGP+PC Las Vegas, Nevada, United States', 'global_code': '85865WGP+PC'}",2.0,0.0,ChIJuTfWGJrcyIARfhjYqVaxQg4,GOOGLE,0.0,"765 North Nellis Boulevard, Las Vegas",36.17682320000001,-115.06398909999999,POINT (-115.0639891 36.17682320000001),0
224,71536e27a61ed85ef89794ce63e95e1bd2c2ba92,brunswick zone mesa lanes,{'open_now': True},ChIJaZimJeMHK4cR3e150inmRe4,"{'compound_code': '94VJ+M5 Mesa, Arizona, United States', 'global_code': '855C94VJ+M5'}",2.0,4.0,ChIJaZimJeMHK4cR3e150inmRe4,GOOGLE,529.0,"1754 West Southern Avenue, Mesa",33.394165,-111.86955800000001,POINT (-111.869558 33.394165),4
225,0804f6a7336deb7bc087b94469c664ef78be3fb2,the honeybaked ham co,{'open_now': True},ChIJqcetlwWoK4cRUPFhK5iREvk,"{'compound_code': '95V3+CC Mesa, Arizona, United States', 'global_code': '855C95V3+CC'}",2.0,4.9,ChIJqcetlwWoK4cRUPFhK5iREvk,GOOGLE,13.0,"706 West Southern Avenue, Mesa",33.393520699999996,-111.8464057,POINT (-111.8464057 33.3935207),5
226,409c88ad99106452d3090419de45b6d73aa0ede3,pita jungle - mesa,{'open_now': True},ChIJf2vxVeIHK4cRVOGRPkKLlr0,"{'compound_code': '94VH+C7 Mesa, Arizona, United States', 'global_code': '855C94VH+C7'}",2.0,4.4,ChIJf2vxVeIHK4cRVOGRPkKLlr0,GOOGLE,807.0,"1850 West Southern Avenue, Mesa",33.39351799999999,-111.87181000000001,POINT (-111.87181 33.39351799999999),4
227,ccd3178f1737ff48b157db56b2ced0ce345d97e2,subway restaurants,{'open_now': True},ChIJf9wdXT6oK4cRNI3Pw2gBSC8,"{'compound_code': '95J7+4F Mesa, Arizona, United States', 'global_code': '855C95J7+4F'}",1.0,3.7,ChIJf9wdXT6oK4cRNI3Pw2gBSC8,GOOGLE,35.0,"240 West Baseline Road, Mesa",33.3802676,-111.83635749999999,POINT (-111.8363575 33.3802676),4
228,92298b0fb365dc173013c56c25e9cfba2d997cfe,pho number one restaurant,{'open_now': True},ChIJR3le0OsHK4cRHxUXTZEH9Rc,"{'compound_code': '94GF+W3 Mesa, Arizona, United States', 'global_code': '855C94GF+W3'}",1.0,4.3,ChIJR3le0OsHK4cRHxUXTZEH9Rc,GOOGLE,288.0,"1955 West Baseline Road #114, Mesa",33.3773531,-111.87730570000001,POINT (-111.8773057 33.3773531),4
229,2d6870cfd4edeb8cb75cfd01dd22589308f249b1,septembers bar & grill,{'open_now': True},ChIJcbwXAg-oK4cRdlN8XYU-BrA,"{'compound_code': '95V4+GV Mesa, Arizona, United States', 'global_code': '855C95V4+GV'}",1.0,4.1,ChIJcbwXAg-oK4cRdlN8XYU-BrA,GOOGLE,272.0,"500 West Southern Avenue, Mesa",33.3937893,-111.84285459999998,POINT (-111.8428546 33.3937893),4
230,240300108312a97737cacc95febd27e29d03205d,arizona wilderness gilbert brewpub,{'open_now': True},ChIJR_m_xzOoK4cRD8uEWOtYiKs,"{'compound_code': '9575+5H Gilbert, Arizona, United States', 'global_code': '855C9575+5H'}",2.0,4.7,ChIJR_m_xzOoK4cRD8uEWOtYiKs,GOOGLE,1478.0,"721 North Arizona Avenue, Gilbert",33.362981100000006,-111.8410686,POINT (-111.8410686 33.36298110000001),5
231,a132bacdea5f353e6d611d36aedc1d65da8495b0,siam garden thai restaurant,{'open_now': True},ChIJWfi1PJuZVogRSv4Uk4lMNGU,"{'compound_code': '522X+PM Charlotte, 1, Charlotte, NC, United States', 'global_code': '867X522X+PM'}",2.0,4.1,ChIJWfi1PJuZVogRSv4Uk4lMNGU,GOOGLE,326.0,"3607 Whitehall Park Drive, Charlotte",35.151786,-80.95080999999998,POINT (-80.95080999999998 35.151786),4
232,5bf126e391ab4745f0a617e556b63aa76aa73f32,clean juice,{'open_now': True},ChIJSTVmTeiZVogRoCZ90oanyN0,"{'compound_code': '526G+HJ Charlotte, 1, Charlotte, NC, United States', 'global_code': '867X526G+HJ'}",2.0,4.9,ChIJSTVmTeiZVogRoCZ90oanyN0,GOOGLE,33.0,"4833 Berewick Town Center Suite 4833-B, Charlotte",35.161396,-80.9733777,POINT (-80.9733777 35.161396),5
233,884c488bb1d5929bef9b0b3ee3583ae10927cd7e,planet smoothie,{'open_now': True},ChIJ29hIIcSZVogRwm9xbyEaxvM,"{'compound_code': '529H+WM Charlotte, 1, Charlotte, NC, United States', 'global_code': '867X529H+WM'}",1.0,4.5,ChIJ29hIIcSZVogRwm9xbyEaxvM,GOOGLE,13.0,"5506 New Fashion Way Ste 325, Charlotte",35.169809,-80.97079500000002,POINT (-80.97079500000002 35.169809),4
234,8836da83618318ff8933ac73f7e1096be5b4cfb0,"hwy 55 burgers, shakes & fries",{'open_now': True},ChIJgxQ6LbiZVogRTAo9obxudOY,"{'compound_code': '52CP+CH Charlotte, 1, Charlotte, NC, United States', 'global_code': '867X52CP+CH'}",1.0,3.8,ChIJgxQ6LbiZVogRTAo9obxudOY,GOOGLE,563.0,"4847 Shopton Road, Charlotte",35.171096999999996,-80.9635473,POINT (-80.9635473 35.171097),4
235,6bdb760abfa3936910fa014ab16f25f260b69cee,great american cookies,{'open_now': True},ChIJvVkansaZVogRUinwiCaG2G4,"{'compound_code': '52CH+7P Charlotte, 1, Charlotte, NC, United States', 'global_code': '867X52CH+7P'}",2.0,2.4,ChIJvVkansaZVogRUinwiCaG2G4,GOOGLE,12.0,"5524 New Fashion Way space 450, Charlotte",35.170742,-80.970711,POINT (-80.97071099999999 35.170742),2
236,e3e35d0b065fcecad275ab41d8a7f862af820be4,zaxby's franchising,{'open_now': True},ChIJVVWlHMKZVogRj5ynkM6jf94,"{'compound_code': '527H+GM Dixie - Berryhill, Belmont, NC, United States', 'global_code': '867X527H+GM'}",2.0,3.3,ChIJVVWlHMKZVogRj5ynkM6jf94,GOOGLE,6.0,"9308 Robert Irwin Drive, Charlotte",35.1637713,-80.9708314,POINT (-80.97083139999999 35.1637713),3
237,fad26195b5b55f367a111137aee80455a3196c9c,smithfield's chicken 'n barbeque,{'open_now': True},ChIJlc3BgsGZVogRXL4nHuZe2nU,"{'compound_code': '527H+MC Charlotte, 1, Charlotte, NC, United States', 'global_code': '867X527H+MC'}",1.0,4.2,ChIJlc3BgsGZVogRXL4nHuZe2nU,GOOGLE,525.0,"5121 Trojan Drive, Charlotte",35.164167799999994,-80.9714082,POINT (-80.9714082 35.16416779999999),4
238,5c65c24fdc788bf387cac579f54470b2321de950,enrico's ristorante pizzeria and bar,{'open_now': True},ChIJM6rhdOmZVogRANqTyUas1z8,"{'compound_code': '526H+37 Charlotte, 1, Charlotte, NC, United States', 'global_code': '867X526H+37'}",2.0,4.4,ChIJM6rhdOmZVogRANqTyUas1z8,GOOGLE,330.0,"Town Center Drive, 4815 Berewick Commons Parkway A, Charlotte",35.1602276,-80.97184240000001,POINT (-80.97184240000001 35.1602276),4
239,6649aa6a80bab9b26677120fe1056e023e1d1a76,jamba juice antelope marketplace,{'open_now': True},ChIJiW5Ow6M_K4cRnlH-h3Dtlo0,"{'compound_code': 'FP8F+53 Avondale, Arizona, United States', 'global_code': '8559FP8F+53'}",1.0,4.2,ChIJiW5Ow6M_K4cRnlH-h3Dtlo0,GOOGLE,113.0,"10110 West McDowell Road #120, Avondale",33.4654124,-112.27735859999999,POINT (-112.2773586 33.4654124),4
240,e4ffadfcda55d0b22bad9556dff6c48ef762b8e2,islands restaurant avondale,{'open_now': True},ChIJ5ZMpnaQ_K4cRnRy9utia_ro,"{'compound_code': 'FP7F+P9 Avondale, Arizona, United States', 'global_code': '8559FP7F+P9'}",2.0,4.3,ChIJ5ZMpnaQ_K4cRnRy9utia_ro,GOOGLE,1096.0,"10055 West McDowell Road, Avondale",33.46435890000001,-112.27656999999999,POINT (-112.27657 33.46435890000001),4
241,9881809d7bf36cc3317532fb6d49b6c151d1241a,dunkin',{'open_now': True},ChIJYfAufbs_K4cRchPkZwmCYus,"{'compound_code': 'FP8H+56 Phoenix, Arizona, United States', 'global_code': '8559FP8H+56'}",1.0,3.6,ChIJYfAufbs_K4cRchPkZwmCYus,GOOGLE,129.0,"1615 North 99th Avenue, Phoenix",33.465381,-112.2718968,POINT (-112.2718968 33.465381),4
242,4091f5a05dabcb44764d4b2fc4c0024ee593eaa5,yogis grill avondale,{'open_now': True},ChIJB9r_VaM_K4cR-06nKREyfhc,"{'compound_code': 'FP89+GX Avondale, Arizona, United States', 'global_code': '8559FP89+GX'}",1.0,4.1,ChIJB9r_VaM_K4cR-06nKREyfhc,GOOGLE,308.0,"10220 West McDowell Road #110, Avondale",33.466266,-112.280006,POINT (-112.280006 33.466266),4
243,f03f39bc3b52ef72ef0996631df7ce1d1d6c709a,the honey baked ham company,{'open_now': True},ChIJV1W-v7s_K4cR6Xp2iVMgTe0,"{'compound_code': 'FP7H+MQ Tolleson, Arizona, United States', 'global_code': '8559FP7H+MQ'}",2.0,4.2,ChIJV1W-v7s_K4cR6Xp2iVMgTe0,GOOGLE,43.0,"9897 West McDowell Road #B250, Tolleson",33.4642246,-112.2706149,POINT (-112.2706149 33.4642246),4
244,cebe0ac197a59b148b5c98a123cdff6ad323265e,carlos o'brien's mexican restaurant avondale,{'open_now': True},ChIJtckZRRc_K4cR_pmBnLzy3r0,"{'compound_code': 'FM3W+R2 Avondale, Arizona, United States', 'global_code': '8559FM3W+R2'}",2.0,4.1,ChIJtckZRRc_K4cR_pmBnLzy3r0,GOOGLE,630.0,"765 North 114th Avenue, Avondale",33.454609000000005,-112.30491200000002,POINT (-112.304912 33.454609),4
245,31d9f46c89c60bceaa3a1f97a35a8bba466f7566,pit stop,{'open_now': True},ChIJn2jmQy0ryYAREuD-1PxjM60,"{'compound_code': 'X5F3+2P Boulder City, Nevada, United States', 'global_code': '8577X5F3+2P'}",2.0,4.6,ChIJn2jmQy0ryYAREuD-1PxjM60,GOOGLE,537.0,"802 Buchanan Boulevard D, Boulder City",35.97250299999999,-114.84564099999999,POINT (-114.845641 35.97250299999999),5
246,e418b1330e5a6e5b14d07130245c88d0bd903141,anthony's on the parkway,{'open_now': False},ChIJcwUfgzYryYAR711g8ESXhJc,"{'compound_code': 'X4CX+HH Boulder City, Nevada, United States', 'global_code': '8577X4CX+HH'}",2.0,4.3,ChIJcwUfgzYryYAR711g8ESXhJc,GOOGLE,78.0,"1312 Boulder City Parkway, Boulder City",35.971457,-114.85111100000002,POINT (-114.851111 35.971457),4
247,381123ce8f88518c9a2e4f633d828e7a8f1a2cf4,giuseppe's italian ristorante,{'open_now': True},ChIJgffh20DgMIgRYUZXmOQT6R0,"{'compound_code': '8F76+H2 Northfield, Ohio, United States', 'global_code': '86HW8F76+H2'}",2.0,4.3,ChIJgffh20DgMIgRYUZXmOQT6R0,GOOGLE,118.0,"32 West Aurora Road, Northfield",41.31389679999999,-81.5398828,POINT (-81.5398828 41.31389679999999),4
248,92706f6fa5f41230653cd2f313d558122ec84607,casa d'angelo italian,{'open_now': True},ChIJN5rTbNsfMYgRYr2rAcCljqM,"{'compound_code': '8F7V+M9 Macedonia, Northfield Center Township, OH, United States', 'global_code': '86HW8F7V+M9'}",2.0,4.5,ChIJN5rTbNsfMYgRYr2rAcCljqM,GOOGLE,367.0,"893 East Aurora Road, Macedonia",41.3142211,-81.5065995,POINT (-81.50659949999999 41.3142211),4
249,5d6612685f442dc9dd8726cd29570b5095c049a5,steak 'n shake,{'open_now': True},ChIJIW9wPyfgMIgRmSKNmEUhW48,"{'compound_code': '8F7M+P4 Macedonia, Northfield Center Township, OH, United States', 'global_code': '86HW8F7M+P4'}",1.0,3.2,ChIJIW9wPyfgMIgRmSKNmEUhW48,GOOGLE,726.0,"597 East Aurora Road, Macedonia",41.31433339999999,-81.5172434,POINT (-81.5172434 41.31433339999999),3
250,dad6064fc98b0c8f1d7570a99c74298a97aab803,sunset station hotel & casino,{'open_now': True},ChIJIaI3VPfQyIARG24byke0WI4,"{'compound_code': '3X65+8P Henderson, Nevada, United States', 'global_code': '85863X65+8P'}",2.0,4.3,ChIJIaI3VPfQyIARG24byke0WI4,GOOGLE,10399.0,"1301 West Sunset Road, Henderson",36.06087279999999,-115.0406267,POINT (-115.0406267 36.06087279999999),4
251,a86e96a3f040239b59c14a04a63156b9bb101dd2,the honey baked ham company,{'open_now': True},ChIJyUY_s17QyIARIYTr8CftmDc,"{'compound_code': '3W7X+9F Henderson, Nevada, United States', 'global_code': '85863W7X+9F'}",2.0,4.3,ChIJyUY_s17QyIARIYTr8CftmDc,GOOGLE,109.0,"1533 West Sunset Road, Henderson",36.0633774,-115.05137179999998,POINT (-115.0513718 36.0633774),4
252,48e751794c49b1f11d44f83a9402b4e4a92c98ce,einstein bros. bagels,{'open_now': False},ChIJ70OSo1jQyIARhiG1PXxlBBs,"{'compound_code': '3X73+84 Henderson, Nevada, United States', 'global_code': '85863X73+84'}",1.0,4.0,ChIJ70OSo1jQyIARhiG1PXxlBBs,GOOGLE,287.0,"1405 West Sunset Road Ste 107, Henderson",36.0633551,-115.047196,POINT (-115.047196 36.0633551),4
253,02d9d1a840838518b793ba03edf0d7e2727f32fe,bass lake taverne & inn,,ChIJ_3WzHYkKMYgRrrfegw78iNY,"{'compound_code': 'HQCW+4C Chardon, Hambden Township, OH, United States', 'global_code': '86HWHQCW+4C'}",3.0,4.4,ChIJ_3WzHYkKMYgRrrfegw78iNY,GOOGLE,289.0,"426 South Street, Chardon",41.57032299999999,-81.20389109999998,POINT (-81.20389109999998 41.57032299999999),4
254,f7bbd35797373163abaf9f5e9d74717803a8c9bf,cleats chardon,{'open_now': True},ChIJ7dpv_PIKMYgRSU6fx0LUrHg,"{'compound_code': 'HR52+VM Chardon, Hambden Township, OH, United States', 'global_code': '86HWHR52+VM'}",2.0,4.0,ChIJ7dpv_PIKMYgRSU6fx0LUrHg,GOOGLE,259.0,"602 South Street, Chardon",41.5597336,-81.19835839999998,POINT (-81.19835839999998 41.5597336),4
255,eddeb9080aafb7ffbae6be8cccd74ef04fcc0cba,yangtze chinese restaurant,{'open_now': True},ChIJvaaPuIEKMYgR29L4dqthqbw,"{'compound_code': 'HQJW+M9 Chardon, Hambden Township, OH, United States', 'global_code': '86HWHQJW+M9'}",2.0,4.0,ChIJvaaPuIEKMYgR29L4dqthqbw,GOOGLE,93.0,"133 Main Street, Chardon",41.58167520000001,-81.2040296,POINT (-81.2040296 41.58167520000001),4
256,8adea02a6741be6265ae1469ed6418015c503303,guys pizza co. chardon,{'open_now': True},ChIJ7dpv_PIKMYgRJi2m1jBir2g,"{'compound_code': 'HR62+67 Chardon, Hambden Township, OH, United States', 'global_code': '86HWHR62+67'}",1.0,3.9,ChIJ7dpv_PIKMYgRJi2m1jBir2g,GOOGLE,38.0,"602 South Street Ste B10, Chardon",41.560624,-81.199265,POINT (-81.199265 41.560624),4
257,671a92d2603a5c9862ad8f49bbecded521d2e024,joey's italian grille,{'open_now': True},ChIJTz7_9n8KMYgRStfBcal2DEY,"{'compound_code': 'HQMR+44 Chardon, Hambden Township, OH, United States', 'global_code': '86HWHQMR+44'}",2.0,4.4,ChIJTz7_9n8KMYgRStfBcal2DEY,GOOGLE,405.0,"209 Center Street, Chardon",41.5828435,-81.2097062,POINT (-81.2097062 41.5828435),4
258,6d07030d614fa38dc3767359c68b8d7fddb7907b,georgio's oven fresh pizza co,{'open_now': True},ChIJdaNiIXkKMYgRMOwSVC41-lY,"{'compound_code': 'HQJP+F6 Chardon, Hambden Township, OH, United States', 'global_code': '86HWHQJP+F6'}",1.0,4.2,ChIJdaNiIXkKMYgRMOwSVC41-lY,GOOGLE,39.0,"518 Water Street, Chardon",41.5811748,-81.21439149999998,POINT (-81.21439149999998 41.5811748),4
259,43e4f9a7ad1ddd787cc03c8fe715a7ee24280ae3,cheng's china house,{'open_now': True},ChIJwzbggn4KMYgResZQnJ-BSVE,"{'compound_code': 'HQHQ+QG Chardon, Hambden Township, OH, United States', 'global_code': '86HWHQHQ+QG'}",1.0,4.6,ChIJwzbggn4KMYgResZQnJ-BSVE,GOOGLE,106.0,"425 Water Street # 12, Chardon",41.5794392,-81.2112416,POINT (-81.21124159999999 41.5794392),5
260,997b14e2b1da07e05915a4d96723eafee3c9a310,sheetz #435,{'open_now': True},ChIJU_QExX4KMYgRvYugKrzg4nA,"{'compound_code': 'HQJQ+64 Chardon, Hambden Township, OH, United States', 'global_code': '86HWHQJQ+64'}",1.0,4.2,ChIJU_QExX4KMYgRvYugKrzg4nA,GOOGLE,19.0,"435 Water Street, Chardon",41.5805476,-81.2121995,POINT (-81.2121995 41.5805476),4
261,ccf6de054bb3d2823628e60673f43ea25b52cf7a,tempe mission palms hotel and conference center,{'open_now': True},ChIJo5zyDNgIK4cRzhBIJbVdDAQ,"{'compound_code': 'C3G6+CC Tempe, Arizona, United States', 'global_code': '855CC3G6+CC'}",2.0,4.4,ChIJo5zyDNgIK4cRzhBIJbVdDAQ,GOOGLE,997.0,"60 East 5th Street, Tempe",33.42606669999999,-111.93887990000002,POINT (-111.9388799 33.42606669999999),4
262,4f1120dd7cee1b608c923c48d8577084acbb4a53,milagro's,{'open_now': True},ChIJdTMe0TAPK4cR7bbTfB-4r0E,"{'compound_code': 'C24Q+G9 Tempe, Arizona, United States', 'global_code': '855CC24Q+G9'}",2.0,3.2,ChIJdTMe0TAPK4cR7bbTfB-4r0E,GOOGLE,13.0,"2100 South Priest Drive, Tempe",33.4063205,-111.9616034,POINT (-111.9616034 33.4063205),3
263,8b5142b2811dac53f82cfcead2635827b21e2f2c,pita jungle - tempe,{'open_now': True},ChIJsU_0ae4IK4cRV3_m2H13DAE,"{'compound_code': 'C3C6+V4 Tempe, Arizona, United States', 'global_code': '855CC3C6+V4'}",2.0,4.4,ChIJsU_0ae4IK4cRV3_m2H13DAE,GOOGLE,632.0,"4 East University Drive, Tempe",33.422200800000006,-111.9396473,POINT (-111.9396473 33.42220080000001),4
264,9fb67aa16efc556fb59327503d742a379de45497,devil's advocate sports grill,{'open_now': True},ChIJQf3M7uYIK4cRLwWy_kr2UzY,"{'compound_code': 'C3CG+P6 Tempe, Arizona, United States', 'global_code': '855CC3CG+P6'}",2.0,4.2,ChIJQf3M7uYIK4cRLwWy_kr2UzY,GOOGLE,698.0,"955 East University Drive, Tempe",33.4217718,-111.92438359999998,POINT (-111.9243836 33.4217718),4
265,3ba4674b2b93cc5ab977fb1353130a46b0220e12,hunan express & wings,{'open_now': True},ChIJU0j9XcsIK4cR8kwyu8trRfo,"{'compound_code': 'C25X+4P Tempe, Arizona, United States', 'global_code': '855CC25X+4P'}",1.0,3.9,ChIJU0j9XcsIK4cR8kwyu8trRfo,GOOGLE,111.0,"818 West Broadway Road, Tempe",33.407796399999995,-111.95066709999999,POINT (-111.9506671 33.4077964),4
266,f0bb2dfb19dd94d8d6bd5a452ae0f0db16ee3080,dunkin',{'open_now': True},ChIJeUdT2ikPK4cRpqJK61nKvuk,"{'compound_code': 'C2CQ+FQ Tempe, Arizona, United States', 'global_code': '855CC2CQ+FQ'}",1.0,3.8,ChIJeUdT2ikPK4cRpqJK61nKvuk,GOOGLE,257.0,"1335 W. University Dr Suite 11, Tempe",33.4212243,-111.9605682,POINT (-111.9605682 33.4212243),4
267,19ff3de5eb36046e28a6b9d7ef4eef0619db2cf6,the randazzo's grid iron,{'open_now': True},ChIJNx9b4YCQVogRCud5NJ8RVY0,"{'compound_code': '4225+CP Charlotte, 1, Charlotte, NC, United States', 'global_code': '867X4225+CP'}",2.0,3.9,ChIJNx9b4YCQVogRCud5NJ8RVY0,GOOGLE,425.0,"13105 South Tryon Street, Charlotte",35.10102699999999,-80.990651,POINT (-80.990651 35.10102699999999),4
268,5f1df0c5e464c754edda0d4c12dbc668df814804,wine shop at rivergate,{'open_now': True},ChIJTchMGX-aVogRA7xcZpkr2nk,"{'compound_code': '4228+X6 Charlotte, 1, Charlotte, NC, United States', 'global_code': '867X4228+X6'}",2.0,4.2,ChIJTchMGX-aVogRA7xcZpkr2nk,GOOGLE,144.0,"14142 Rivergate Parkway # 200, Charlotte",35.10245929999999,-80.98440529999998,POINT (-80.98440529999998 35.10245929999999),4
269,1b125fd318f19d16c580fc2ad35a16ffde249eac,dunkin',{'open_now': True},ChIJIc4pXAGQVogR580jVW3DdKo,"{'compound_code': '3255+W3 Fort Mill, South Carolina, United States', 'global_code': '867X3255+W3'}",1.0,3.0,ChIJIc4pXAGQVogR580jVW3DdKo,GOOGLE,175.0,"5009 Lake Vista Boulevard, Fort Mill",35.0597995,-80.99226929999998,POINT (-80.99226929999998 35.0597995),3
270,17c9f29371fa716ea2cc63cacff1e587d90d3d91,tega cay village pizza and italian restaurant,{'open_now': True},ChIJ9WHt4wCQVogRqGOmsIUenjk,"{'compound_code': '3256+Q5 Tega Cay, 3, Steele Creek, SC, United States', 'global_code': '867X3256+Q5'}",1.0,4.2,ChIJ9WHt4wCQVogRqGOmsIUenjk,GOOGLE,197.0,"773 Crossroads Plaza, Tega Cay",35.0594522,-80.989564,POINT (-80.989564 35.0594522),4
271,fdc879e93f939311dfa20362bd3206fe94d9911a,american burger co,{'open_now': True},ChIJsYfLan-aVogR3WmCyzmird4,"{'compound_code': '4237+2P Charlotte, 1, Charlotte, NC, United States', 'global_code': '867X4237+2P'}",2.0,4.0,ChIJsYfLan-aVogR3WmCyzmird4,GOOGLE,294.0,"14130 Rivergate Parkway, Charlotte",35.1025649,-80.9856902,POINT (-80.98569019999999 35.1025649),4
272,e78781592010fddf2c42b7b365f583e546582fc7,treetz,{'open_now': True},ChIJb9-KNwSQVogRj5X1-4k7K20,"{'compound_code': '3264+W5 Fort Mill, South Carolina, United States', 'global_code': '867X3264+W5'}",2.0,4.7,ChIJb9-KNwSQVogRj5X1-4k7K20,GOOGLE,38.0,"857 Stockbridge Drive, Fort Mill",35.0622606,-80.9946148,POINT (-80.99461479999999 35.0622606),5
273,cdd3275ded64f7b751431b5004e8f2ed98f8c761,subway restaurants,{'open_now': True},ChIJ_aYUJZb6NIgRNUjqjHHJZUk,"{'compound_code': '83V4+V4 West Mifflin, Pennsylvania, United States', 'global_code': '87G283V4+V4'}",1.0,4.0,ChIJ_aYUJZb6NIgRNUjqjHHJZUk,GOOGLE,48.0,"3533 Mountain View Drive, West Mifflin",40.3447132,-79.94462740000002,POINT (-79.94462740000002 40.3447132),4
274,98a93d4fbfe958de9d6e24930e1a91bb8c43873f,primanti bros.,{'open_now': True},ChIJOZWyGOf6NIgRxB9NE1UFX1Q,"{'compound_code': '83F4+HG Pittsburgh, Pennsylvania, United States', 'global_code': '87G283F4+HG'}",1.0,4.4,ChIJOZWyGOf6NIgRxB9NE1UFX1Q,GOOGLE,967.0,"830 Clairton Boulevard, Pittsburgh",40.32399,-79.94372899999998,POINT (-79.94372899999998 40.32399),4
275,301109893c30c6c6b3d442432cfeb4d98430153e,steak 'n shake,{'open_now': True},ChIJISA9e-z6NIgRzhR0F8Az9qc,"{'compound_code': '83P2+7P Pleasant Hills, South Park Township, PA, United States', 'global_code': '87G283P2+7P'}",1.0,3.6,ChIJISA9e-z6NIgRzhR0F8Az9qc,GOOGLE,981.0,"410 Clairton Boulevard, Pleasant Hills",40.335741600000006,-79.94813470000001,POINT (-79.94813470000001 40.33574160000001),4
276,d9581b220131e80e0a6b177472f2a3b5ea602f5f,sheetz #376,{'open_now': True},ChIJldCj39_6NIgRPObwAfL93Os,"{'compound_code': '83C4+2V Pittsburgh, Pennsylvania, United States', 'global_code': '87G283C4+2V'}",1.0,3.2,ChIJldCj39_6NIgRPObwAfL93Os,GOOGLE,40.0,"1000 Clairton Boulevard, Pittsburgh",40.3200119,-79.94283519999998,POINT (-79.94283519999998 40.3200119),3
277,980e40f515f7e8d029483399ac1ad787d925682d,buck & honey's,{'open_now': True},ChIJ903mEb33BogRuQ4QY5Gfvlk,"{'compound_code': '5QXF+RH Sun Prairie, Wisconsin, United States', 'global_code': '86MG5QXF+RH'}",2.0,4.3,ChIJ903mEb33BogRuQ4QY5Gfvlk,GOOGLE,811.0,"804 Liberty Boulevard, Sun Prairie",43.1995855,-89.2260941,POINT (-89.2260941 43.1995855),4
278,4933528a602ca3f2f927b52dd9017ead4b6aa33c,market street diner and bakery,{'open_now': True},ChIJw4MWm833BogRNzfr7b7Ae9s,"{'compound_code': '5QJQ+XC Sun Prairie, Wisconsin, United States', 'global_code': '86MG5QJQ+XC'}",2.0,4.1,ChIJw4MWm833BogRNzfr7b7Ae9s,GOOGLE,244.0,"110 Market Street, Sun Prairie",43.18241270000001,-89.21141639999998,POINT (-89.21141639999998 43.18241270000001),4
279,87154feeab0a97023d08f6e5cbff999c4b733cb4,glass nickel pizza co. – sun prairie,{'open_now': True},ChIJ39MEc873BogRhoEKz3WDEzw,"{'compound_code': '5QJF+H4 Sun Prairie, Wisconsin, United States', 'global_code': '86MG5QJF+H4'}",2.0,4.0,ChIJ39MEc873BogRhoEKz3WDEzw,GOOGLE,183.0,"815 West Main Street, Sun Prairie",43.18148180000001,-89.22724790000001,POINT (-89.22724790000001 43.18148180000001),4
280,501ce5930f1834053d2075da02c8027fc324e81b,mcgovern's | club & restaurant,{'open_now': True},ChIJ_zBYrML3BogR7Ki31dfCqOI,"{'compound_code': '5QJF+Q5 Sun Prairie, Wisconsin, United States', 'global_code': '86MG5QJF+Q5'}",2.0,3.5,ChIJ_zBYrML3BogR7Ki31dfCqOI,GOOGLE,117.0,"818 West Main Street, Sun Prairie",43.181994700000004,-89.22702259999998,POINT (-89.22702259999998 43.1819947),3
281,12985c7f9586058f59baee30b28fcef6618962bb,eddie's alehouse & eatery,{'open_now': True},ChIJy55rpM33BogRKF91fqGY-R0,"{'compound_code': '5QMQ+7C Sun Prairie, Wisconsin, United States', 'global_code': '86MG5QMQ+7C'}",2.0,4.6,ChIJy55rpM33BogRKF91fqGY-R0,GOOGLE,284.0,"238 East Main Street, Sun Prairie",43.183210100000004,-89.2113933,POINT (-89.2113933 43.1832101),5
282,a4ac1f232ea1436503878f3b3bbfc0520b3de423,papa murphy's take 'n' bake pizza,{'open_now': True},ChIJi8_Y3AH4BogRGkda4HgCMVI,"{'compound_code': '5QF2+PG Sun Prairie, Wisconsin, United States', 'global_code': '86MG5QF2+PG'}",1.0,4.0,ChIJi8_Y3AH4BogRGkda4HgCMVI,GOOGLE,40.0,"2041 McCoy Road, Sun Prairie",43.17435209999999,-89.24868339999998,POINT (-89.24868339999998 43.17435209999999),4
